[
  {
    "objectid": "1734",
    "url": "http://web.mta.info/nyct/service/",
    "name": "Birchall Ave & Sagamore St at NW corner",
    "the_geom": {
      "type": "Point",
      "coordinates": [-73.86835600032798, 40.84916900104506]
    },
    "line": "2-5"
  },
  {
    "objectid": "1735",
    "url": "http://web.mta.info/nyct/service/",
    "name": "Birchall Ave & Sagamore St at NE corner",
    "the_geom": {
      "type": "Point",
      "coordinates": [-73.86821300022677, 40.84912800131844]
    },
    "line": "2-5"
  },
  {
    "objectid": "1736",
    "url": "http://web.mta.info/nyct/service/",
    "name": "Morris Park Ave & 180th St at NW corner",
    "the_geom": {
      "type": "Point",
      "coordinates": [-73.87349900050798, 40.84122300105249]
    },
    "line": "2-5"
  },
  {
    "objectid": "1737",
    "url": "http://web.mta.info/nyct/service/",
    "name": "Morris Park Ave & 180th St at NW corner",
    "the_geom": {
      "type": "Point",
      "coordinates": [-73.8728919997833, 40.84145300067447]
    },
    "line": "2-5"
  },
  {
    "objectid": "1738",
    "url": "http://web.mta.info/nyct/service/",
    "name": "Boston Rd & 178th St at SW corner",
    "the_geom": {
      "type": "Point",
      "coordinates": [-73.87962300013866, 40.84081500075867]
    },
    "line": "2-5"
  },
  {
    "objectid": "1739",
    "url": "http://web.mta.info/nyct/service/",
    "name": "Boston Rd & E Tremont Ave at NW corner",
    "the_geom": {
      "type": "Point",
      "coordinates": [-73.88000500027815, 40.840434000875874]
    },
    "line": "2-5"
  },
  {
    "objectid": "1740",
    "url": "http://web.mta.info/nyct/service/",
    "name": "Boston Rd & E Tremont Ave at NE corner",
    "the_geom": {
      "type": "Point",
      "coordinates": [-73.87983300021861, 40.84035400111976]
    },
    "line": "2-5"
  },
  {
    "objectid": "1741",
    "url": "http://web.mta.info/nyct/service/",
    "name": "Boston Rd & 178th St at SE corner",
    "the_geom": {
      "type": "Point",
      "coordinates": [-73.8795549998336, 40.84063900116436]
    },
    "line": "2-5"
  },
  {
    "objectid": "1742",
    "url": "http://web.mta.info/nyct/service/",
    "name": "Boston Rd & 178th St at NW corner",
    "the_geom": {
      "type": "Point",
      "coordinates": [-73.87939700013239, 40.84107800066419]
    },
    "line": "2-5"
  },
  {
    "objectid": "1743",
    "url": "http://web.mta.info/nyct/service/",
    "name": "Boston Rd & 174th St at SW corner",
    "the_geom": {
      "type": "Point",
      "coordinates": [-73.88804799985908, 40.83732500129732]
    },
    "line": "2-5"
  },
  {
    "objectid": "1744",
    "url": "http://web.mta.info/nyct/service/",
    "name": "Boston Rd & 174th St at NW corner",
    "the_geom": {
      "type": "Point",
      "coordinates": [-73.88775499967073, 40.83759900080287]
    },
    "line": "2-5"
  },
  {
    "objectid": "1745",
    "url": "http://web.mta.info/nyct/service/",
    "name": "Southern Blvd & Freeman St at SW corner",
    "the_geom": {
      "type": "Point",
      "coordinates": [-73.8920200000541, 40.82990300129103]
    },
    "line": "2-5"
  },
  {
    "objectid": "1746",
    "url": "http://web.mta.info/nyct/service/",
    "name": "Southern Blvd & Freeman St at NW corner",
    "the_geom": {
      "type": "Point",
      "coordinates": [-73.89201499957316, 40.83036900118696]
    },
    "line": "2-5"
  },
  {
    "objectid": "1747",
    "url": "http://web.mta.info/nyct/service/",
    "name": "Westchester Ave & Simpson St at NE corner",
    "the_geom": {
      "type": "Point",
      "coordinates": [-73.8928969996593, 40.824356000986995]
    },
    "line": "2-5"
  },
  {
    "objectid": "1748",
    "url": "http://web.mta.info/nyct/service/",
    "name": "Westchester Ave & Simpson St at NW corner",
    "the_geom": {
      "type": "Point",
      "coordinates": [-73.89311400018327, 40.82417700086825]
    },
    "line": "2-5"
  },
  {
    "objectid": "1749",
    "url": "http://web.mta.info/nyct/service/",
    "name": "Westchester Ave & Simpson St at NE corner",
    "the_geom": {
      "type": "Point",
      "coordinates": [-73.89272399968436, 40.82435800046701]
    },
    "line": "2-5"
  },
  {
    "objectid": "1750",
    "url": "http://web.mta.info/nyct/service/",
    "name": "Intervale Ave & Westchester Ave at NE corner",
    "the_geom": {
      "type": "Point",
      "coordinates": [-73.89650800005289, 40.82240000099551]
    },
    "line": "2-5"
  },
  {
    "objectid": "1751",
    "url": "http://web.mta.info/nyct/service/",
    "name": "Intervale Ave & Westchester Ave at NE corner",
    "the_geom": {
      "type": "Point",
      "coordinates": [-73.89671899954544, 40.822447000685614]
    },
    "line": "2-5"
  },
  {
    "objectid": "1752",
    "url": "http://web.mta.info/nyct/service/",
    "name": "Intervale Ave & Westchester Ave at SE corner",
    "the_geom": {
      "type": "Point",
      "coordinates": [-73.89668100059053, 40.82209500126821]
    },
    "line": "2-5"
  },
  {
    "objectid": "1753",
    "url": "http://web.mta.info/nyct/service/",
    "name": "Westchester & 160th St at SW corner",
    "the_geom": {
      "type": "Point",
      "coordinates": [-73.90195799960925, 40.81958300055107]
    },
    "line": "2-5"
  },
  {
    "objectid": "1754",
    "url": "http://web.mta.info/nyct/service/",
    "name": "Prospect Ave & 160th St at NW corner",
    "the_geom": {
      "type": "Point",
      "coordinates": [-73.90166599969895, 40.81988700097359]
    },
    "line": "2-5"
  },
  {
    "objectid": "1755",
    "url": "http://web.mta.info/nyct/service/",
    "name": "Jackson Ave & 152nd St at NE corner",
    "the_geom": {
      "type": "Point",
      "coordinates": [-73.90794199971145, 40.816201000889976]
    },
    "line": "2-5"
  },
  {
    "objectid": "1756",
    "url": "http://web.mta.info/nyct/service/",
    "name": "Jackson Ave & 152nd St at NE corner",
    "the_geom": {
      "type": "Point",
      "coordinates": [-73.90783599990867, 40.81634900118909]
    },
    "line": "2-5"
  },
  {
    "objectid": "1757",
    "url": "http://web.mta.info/nyct/service/",
    "name": "Jackson Ave & Westchester Ave at NE corner",
    "the_geom": {
      "type": "Point",
      "coordinates": [-73.90789300002874, 40.816589001345]
    },
    "line": "2-5"
  },
  {
    "objectid": "1758",
    "url": "http://web.mta.info/nyct/service/",
    "name": "Jackson Ave & Westchester Ave at NW corner",
    "the_geom": {
      "type": "Point",
      "coordinates": [-73.90737899951296, 40.81687300084191]
    },
    "line": "2-5"
  },
  {
    "objectid": "1759",
    "url": "http://web.mta.info/nyct/service/",
    "name": "Melrose Ave & 149th St at NW corner",
    "the_geom": {
      "type": "Point",
      "coordinates": [-73.91779800052478, 40.816247000954746]
    },
    "line": "2-5"
  },
  {
    "objectid": "1760",
    "url": "http://web.mta.info/nyct/service/",
    "name": "Melrose Ave & 149th St at NE corner",
    "the_geom": {
      "type": "Point",
      "coordinates": [-73.91754299959281, 40.816315000918856]
    },
    "line": "2-5"
  },
  {
    "objectid": "1761",
    "url": "http://web.mta.info/nyct/service/",
    "name": "Melrose Ave & 149th St at NW corner",
    "the_geom": {
      "type": "Point",
      "coordinates": [-73.91793400026026, 40.81624200101981]
    },
    "line": "2-5"
  },
  {
    "objectid": "1762",
    "url": "http://web.mta.info/nyct/service/",
    "name": "3rd Ave & 149th St at NW corner",
    "the_geom": {
      "type": "Point",
      "coordinates": [-73.91745600003321, 40.816265000695616]
    },
    "line": "2-5"
  },
  {
    "objectid": "1763",
    "url": "http://web.mta.info/nyct/service/",
    "name": "Adam C. Powell Blvd & 149th St at NE corner",
    "the_geom": {
      "type": "Point",
      "coordinates": [-73.93698100017718, 40.82406900082459]
    },
    "line": "3"
  },
  {
    "objectid": "1764",
    "url": "http://web.mta.info/nyct/service/",
    "name": "Lenox Ave & 145th St at SW corner",
    "the_geom": {
      "type": "Point",
      "coordinates": [-73.9365079998309, 40.820343000629556]
    },
    "line": "3"
  },
  {
    "objectid": "1765",
    "url": "http://web.mta.info/nyct/service/",
    "name": "Lenox Ave & 145th St at NW corner",
    "the_geom": {
      "type": "Point",
      "coordinates": [-73.93627500051028, 40.82066200082306]
    },
    "line": "3"
  },
  {
    "objectid": "1766",
    "url": "http://web.mta.info/nyct/service/",
    "name": "Lenox Ave & 135th St at SW corner",
    "the_geom": {
      "type": "Point",
      "coordinates": [-73.94111700020044, 40.81402400066214]
    },
    "line": "2-3"
  },
  {
    "objectid": "1767",
    "url": "http://web.mta.info/nyct/service/",
    "name": "Lenox Ave & 135th St at NW corner",
    "the_geom": {
      "type": "Point",
      "coordinates": [-73.94090999997408, 40.81431600078061]
    },
    "line": "2-3"
  },
  {
    "objectid": "1768",
    "url": "http://web.mta.info/nyct/service/",
    "name": "Lenox Ave & 125th St at SW corner",
    "the_geom": {
      "type": "Point",
      "coordinates": [-73.94575199990311, 40.80768100084603]
    },
    "line": "2-3"
  },
  {
    "objectid": "1769",
    "url": "http://web.mta.info/nyct/service/",
    "name": "Lenox Ave & 125th St at NW corner",
    "the_geom": {
      "type": "Point",
      "coordinates": [-73.94552399978897, 40.807995000617474]
    },
    "line": "2-3"
  },
  {
    "objectid": "1770",
    "url": "http://web.mta.info/nyct/service/",
    "name": "Lenox Ave & 116th St at SW corner",
    "the_geom": {
      "type": "Point",
      "coordinates": [-73.94994299962482, 40.80194500059596]
    },
    "line": "2-3"
  },
  {
    "objectid": "1771",
    "url": "http://web.mta.info/nyct/service/",
    "name": "Lenox Ave & 116th St at NW corner",
    "the_geom": {
      "type": "Point",
      "coordinates": [-73.9497339996279, 40.802229000880594]
    },
    "line": "2-3"
  },
  {
    "objectid": "1772",
    "url": "http://web.mta.info/nyct/service/",
    "name": "St Nicholas Ave & Central Park North at NW corner",
    "the_geom": {
      "type": "Point",
      "coordinates": [-73.95267200045232, 40.79849700071488]
    },
    "line": "2-3"
  },
  {
    "objectid": "1773",
    "url": "http://web.mta.info/nyct/service/",
    "name": "Main St & Roosevelt Ave at SE corner",
    "the_geom": {
      "type": "Point",
      "coordinates": [-73.82988499974958, 40.75954200052247]
    },
    "line": "7"
  },
  {
    "objectid": "1774",
    "url": "http://web.mta.info/nyct/service/",
    "name": "Main St & Roosevelt Ave at NE corner",
    "the_geom": {
      "type": "Point",
      "coordinates": [-73.82994300022399, 40.75970600083494]
    },
    "line": "7"
  },
  {
    "objectid": "1775",
    "url": "http://web.mta.info/nyct/service/",
    "name": "Main St & Roosevelt Ave at SE corner",
    "the_geom": {
      "type": "Point",
      "coordinates": [-73.82992700036094, 40.75945100062502]
    },
    "line": "7"
  },
  {
    "objectid": "1776",
    "url": "http://web.mta.info/nyct/service/",
    "name": "Main St & Roosevelt Ave at NW corner",
    "the_geom": {
      "type": "Point",
      "coordinates": [-73.83040800033365, 40.75958700091248]
    },
    "line": "7"
  },
  {
    "objectid": "1777",
    "url": "http://web.mta.info/nyct/service/",
    "name": "Main St & Roosevelt Ave at SW corner",
    "the_geom": {
      "type": "Point",
      "coordinates": [-73.83033299958196, 40.75940400122518]
    },
    "line": "7"
  },
  {
    "objectid": "1778",
    "url": "http://web.mta.info/nyct/service/",
    "name": "126th St & Roosevelt Ave at NW corner",
    "the_geom": {
      "type": "Point",
      "coordinates": [-73.84573700003628, 40.754777000898834]
    },
    "line": "7"
  },
  {
    "objectid": "1779",
    "url": "http://web.mta.info/nyct/service/",
    "name": "126th St & Roosevelt Ave at SW corner",
    "the_geom": {
      "type": "Point",
      "coordinates": [-73.84583200008146, 40.754394001173765]
    },
    "line": "7"
  },
  {
    "objectid": "1780",
    "url": "http://web.mta.info/nyct/service/",
    "name": "126th St & Roosevelt Ave at NW corner",
    "the_geom": {
      "type": "Point",
      "coordinates": [-73.846014000518, 40.75465700078071]
    },
    "line": "7"
  },
  {
    "objectid": "1781",
    "url": "http://web.mta.info/nyct/service/",
    "name": "126th St & Roosevelt Ave at NW corner",
    "the_geom": {
      "type": "Point",
      "coordinates": [-73.84559800035487, 40.75476800051026]
    },
    "line": "7"
  },
  {
    "objectid": "1782",
    "url": "http://web.mta.info/nyct/service/",
    "name": "111th St & Roosevelt Ave at NW corner",
    "the_geom": {
      "type": "Point",
      "coordinates": [-73.85606500055066, 40.75161000050445]
    },
    "line": "7"
  },
  {
    "objectid": "1783",
    "url": "http://web.mta.info/nyct/service/",
    "name": "111th St & Roosevelt Ave at SW corner",
    "the_geom": {
      "type": "Point",
      "coordinates": [-73.85599600026607, 40.7514230005298]
    },
    "line": "7"
  },
  {
    "objectid": "1784",
    "url": "http://web.mta.info/nyct/service/",
    "name": "111th St & Roosevelt Ave at SE corner",
    "the_geom": {
      "type": "Point",
      "coordinates": [-73.85562800021326, 40.751551000801946]
    },
    "line": "7"
  },
  {
    "objectid": "1785",
    "url": "http://web.mta.info/nyct/service/",
    "name": "103rd St & Roosevelt Ave at SE corner",
    "the_geom": {
      "type": "Point",
      "coordinates": [-73.8623889994136, 40.74978700120902]
    },
    "line": "7"
  },
  {
    "objectid": "1786",
    "url": "http://web.mta.info/nyct/service/",
    "name": "103rd St & Roosevelt Ave at NE corner",
    "the_geom": {
      "type": "Point",
      "coordinates": [-73.86242500039948, 40.74997300072977]
    },
    "line": "7"
  },
  {
    "objectid": "1787",
    "url": "http://web.mta.info/nyct/service/",
    "name": "103rd St & Roosevelt Ave at SE corner",
    "the_geom": {
      "type": "Point",
      "coordinates": [-73.86253700028536, 40.749775001274365]
    },
    "line": "7"
  },
  {
    "objectid": "1788",
    "url": "http://web.mta.info/nyct/service/",
    "name": "103rd St & Roosevelt Ave at NE corner",
    "the_geom": {
      "type": "Point",
      "coordinates": [-73.86254600024824, 40.74996400053782]
    },
    "line": "7"
  },
  {
    "objectid": "1789",
    "url": "http://web.mta.info/nyct/service/",
    "name": "Junction Boulevard & Roosevelt Avenue at NE corner",
    "the_geom": {
      "type": "Point",
      "coordinates": [-73.86937600053827, 40.749263000986595]
    },
    "line": "7"
  },
  {
    "objectid": "1790",
    "url": "http://web.mta.info/nyct/service/",
    "name": "Junction Blvd & Roosevelt Ave at SE corner",
    "the_geom": {
      "type": "Point",
      "coordinates": [-73.8691200004944, 40.74909500084612]
    },
    "line": "7"
  },
  {
    "objectid": "1791",
    "url": "http://web.mta.info/nyct/service/",
    "name": "Junction Blvd & Roosevelt Ave at NE corner",
    "the_geom": {
      "type": "Point",
      "coordinates": [-73.86921999985785, 40.74926600095647]
    },
    "line": "7"
  },
  {
    "objectid": "1792",
    "url": "http://web.mta.info/nyct/service/",
    "name": "Junction Blvd & Roosevelt Ave at SW corner",
    "the_geom": {
      "type": "Point",
      "coordinates": [-73.86957400050606, 40.7490280012045]
    },
    "line": "7"
  },
  {
    "objectid": "1793",
    "url": "http://web.mta.info/nyct/service/",
    "name": "Junction Blvd & Roosevelt Ave at NW corner",
    "the_geom": {
      "type": "Point",
      "coordinates": [-73.86969600002895, 40.7492130007807]
    },
    "line": "7"
  },
  {
    "objectid": "1794",
    "url": "http://web.mta.info/nyct/service/",
    "name": "90th St & Roosevelt Ave at SE corner",
    "the_geom": {
      "type": "Point",
      "coordinates": [-73.87643200054285, 40.748318000803934]
    },
    "line": "7"
  },
  {
    "objectid": "1795",
    "url": "http://web.mta.info/nyct/service/",
    "name": "90th St & Roosevelt Ave at NE corner",
    "the_geom": {
      "type": "Point",
      "coordinates": [-73.87646099976699, 40.74859000125293]
    },
    "line": "7"
  },
  {
    "objectid": "1796",
    "url": "http://web.mta.info/nyct/service/",
    "name": "90th St & Roosevelt Ave at NW corner",
    "the_geom": {
      "type": "Point",
      "coordinates": [-73.87659099944513, 40.748582000928245]
    },
    "line": "7"
  },
  {
    "objectid": "1797",
    "url": "http://web.mta.info/nyct/service/",
    "name": "82nd St & Roosevelt Ave at NE corner",
    "the_geom": {
      "type": "Point",
      "coordinates": [-73.88387600017465, 40.74781200071324]
    },
    "line": "7"
  },
  {
    "objectid": "1798",
    "url": "http://web.mta.info/nyct/service/",
    "name": "82nd St & Roosevelt Ave at SW corner",
    "the_geom": {
      "type": "Point",
      "coordinates": [-73.88397300018983, 40.74745300056411]
    },
    "line": "7"
  },
  {
    "objectid": "1799",
    "url": "http://web.mta.info/nyct/service/",
    "name": "82nd St & Roosevelt Ave at NW corner",
    "the_geom": {
      "type": "Point",
      "coordinates": [-73.88402800010363, 40.747797001025944]
    },
    "line": "7"
  },
  {
    "objectid": "1800",
    "url": "http://web.mta.info/nyct/service/",
    "name": "69th St & Roosevelt Ave at NE corner",
    "the_geom": {
      "type": "Point",
      "coordinates": [-73.89626799980942, 40.746509000982186]
    },
    "line": "7"
  },
  {
    "objectid": "1801",
    "url": "http://web.mta.info/nyct/service/",
    "name": "69th St & Roosevelt Ave at SW corner",
    "the_geom": {
      "type": "Point",
      "coordinates": [-73.89639599982912, 40.74614800114902]
    },
    "line": "7"
  },
  {
    "objectid": "1802",
    "url": "http://web.mta.info/nyct/service/",
    "name": "61st St & Roosevelt Ave at SE corner",
    "the_geom": {
      "type": "Point",
      "coordinates": [-73.90324800020599, 40.745531000834546]
    },
    "line": "7"
  },
  {
    "objectid": "1803",
    "url": "http://web.mta.info/nyct/service/",
    "name": "61st St & Roosevelt Ave at NE corner",
    "the_geom": {
      "type": "Point",
      "coordinates": [-73.9030630001761, 40.74571700080551]
    },
    "line": "7"
  },
  {
    "objectid": "1804",
    "url": "http://web.mta.info/nyct/service/",
    "name": "61st St & Roosevelt Ave at NE corner",
    "the_geom": {
      "type": "Point",
      "coordinates": [-73.90323399968668, 40.74569200063943]
    },
    "line": "7"
  },
  {
    "objectid": "1805",
    "url": "http://web.mta.info/nyct/service/",
    "name": "52nd St & Roosevelt Ave at SW corner",
    "the_geom": {
      "type": "Point",
      "coordinates": [-73.91300299979955, 40.74393300069892]
    },
    "line": "7"
  },
  {
    "objectid": "1806",
    "url": "http://web.mta.info/nyct/service/",
    "name": "52nd St & Roosevelt Ave at NW corner",
    "the_geom": {
      "type": "Point",
      "coordinates": [-73.91308000030901, 40.74406700117441]
    },
    "line": "7"
  },
  {
    "objectid": "1807",
    "url": "http://web.mta.info/nyct/service/",
    "name": "53rd St & Roosevelt Ave at SE corner",
    "the_geom": {
      "type": "Point",
      "coordinates": [-73.91128200023064, 40.74445300048593]
    },
    "line": "7"
  },
  {
    "objectid": "1808",
    "url": "http://web.mta.info/nyct/service/",
    "name": "53rd St & Roosevelt Ave at NE corner",
    "the_geom": {
      "type": "Point",
      "coordinates": [-73.91129400006578, 40.74459000117725]
    },
    "line": "7"
  },
  {
    "objectid": "1809",
    "url": "http://web.mta.info/nyct/service/",
    "name": "46th St & Queens Blvd at SE corner",
    "the_geom": {
      "type": "Point",
      "coordinates": [-73.9186010004369, 40.743064000975544]
    },
    "line": "7"
  },
  {
    "objectid": "1810",
    "url": "http://web.mta.info/nyct/service/",
    "name": "46th St & Queens Blvd at NE corner",
    "the_geom": {
      "type": "Point",
      "coordinates": [-73.91856399986699, 40.74321700071532]
    },
    "line": "7"
  },
  {
    "objectid": "1811",
    "url": "http://web.mta.info/nyct/service/",
    "name": "46th St & Queens Blvd at SW corner",
    "the_geom": {
      "type": "Point",
      "coordinates": [-73.91884800020249, 40.74310500067605]
    },
    "line": "7"
  },
  {
    "objectid": "1812",
    "url": "http://web.mta.info/nyct/service/",
    "name": "46th St & Queens Blvd at NW corner",
    "the_geom": {
      "type": "Point",
      "coordinates": [-73.91881300055115, 40.743240000765105]
    },
    "line": "7"
  },
  {
    "objectid": "1813",
    "url": "http://web.mta.info/nyct/service/",
    "name": "40th St & Queens Blvd at SE corner",
    "the_geom": {
      "type": "Point",
      "coordinates": [-73.92416100027046, 40.74371000112609]
    },
    "line": "7"
  },
  {
    "objectid": "1814",
    "url": "http://web.mta.info/nyct/service/",
    "name": "40th St & Queens Blvd at NE corner",
    "the_geom": {
      "type": "Point",
      "coordinates": [-73.92411200014045, 40.74388200082643]
    },
    "line": "7"
  },
  {
    "objectid": "1815",
    "url": "http://web.mta.info/nyct/service/",
    "name": "40th St & Queens Blvd at SW corner",
    "the_geom": {
      "type": "Point",
      "coordinates": [-73.92441700024656, 40.74374300100013]
    },
    "line": "7"
  },
  {
    "objectid": "1816",
    "url": "http://web.mta.info/nyct/service/",
    "name": "40th St & Queens Blvd at NW corner",
    "the_geom": {
      "type": "Point",
      "coordinates": [-73.92438500038787, 40.74391100111205]
    },
    "line": "7"
  },
  {
    "objectid": "1817",
    "url": "http://web.mta.info/nyct/service/",
    "name": "33rd St & Queens Blvd at SE corner",
    "the_geom": {
      "type": "Point",
      "coordinates": [-73.93157000009163, 40.74456800061942]
    },
    "line": "7"
  },
  {
    "objectid": "1818",
    "url": "http://web.mta.info/nyct/service/",
    "name": "33rd St & Queens Blvd at NE corner",
    "the_geom": {
      "type": "Point",
      "coordinates": [-73.93153300052721, 40.744724000461275]
    },
    "line": "7"
  },
  {
    "objectid": "1819",
    "url": "http://web.mta.info/nyct/service/",
    "name": "33rd St & Queens Blvd at NW corner",
    "the_geom": {
      "type": "Point",
      "coordinates": [-73.93182900025066, 40.74459400056049]
    },
    "line": "7"
  },
  {
    "objectid": "1820",
    "url": "http://web.mta.info/nyct/service/",
    "name": "33rd St & Queens Blvd at SW corner",
    "the_geom": {
      "type": "Point",
      "coordinates": [-73.9317939996055, 40.74476300048575]
    },
    "line": "7"
  },
  {
    "objectid": "1821",
    "url": "http://web.mta.info/nyct/service/",
    "name": "Queens Plaza North & 27th St at NW corner",
    "the_geom": {
      "type": "Point",
      "coordinates": [-73.9396710002236, 40.7508350011798]
    },
    "line": "N-Q-7"
  },
  {
    "objectid": "1822",
    "url": "http://web.mta.info/nyct/service/",
    "name": "Queens Plaza South & 27th St at SW corner",
    "the_geom": {
      "type": "Point",
      "coordinates": [-73.940244999736, 40.750302000858184]
    },
    "line": "N-Q-7"
  },
  {
    "objectid": "1823",
    "url": "http://web.mta.info/nyct/service/",
    "name": "23rd St & 45th Rd at NW corner",
    "the_geom": {
      "type": "Point",
      "coordinates": [-73.94571300016653, 40.746308001163634]
    },
    "line": "E-G-M-7"
  },
  {
    "objectid": "1824",
    "url": "http://web.mta.info/nyct/service/",
    "name": "23rd St & 45th Rd at SE corner",
    "the_geom": {
      "type": "Point",
      "coordinates": [-73.94534899958121, 40.74613000057653]
    },
    "line": "E-G-M-7"
  },
  {
    "objectid": "1825",
    "url": "http://web.mta.info/nyct/service/",
    "name": "23rd St & 45th Rd at NE corner",
    "the_geom": {
      "type": "Point",
      "coordinates": [-73.94532200035314, 40.74623200075596]
    },
    "line": "E-G-M-7"
  },
  {
    "objectid": "1826",
    "url": "http://web.mta.info/nyct/service/",
    "name": "21st St & 49th Ave at NE corner",
    "the_geom": {
      "type": "Point",
      "coordinates": [-73.94860899952165, 40.742500001189924]
    },
    "line": "7"
  },
  {
    "objectid": "1827",
    "url": "http://web.mta.info/nyct/service/",
    "name": "21st St & 49th Ave at NE corner",
    "the_geom": {
      "type": "Point",
      "coordinates": [-73.94810999980871, 40.74240500087813]
    },
    "line": "7"
  },
  {
    "objectid": "1828",
    "url": "http://web.mta.info/nyct/service/",
    "name": "21st St & 49th Ave at NE corner",
    "the_geom": {
      "type": "Point",
      "coordinates": [-73.9481950003783, 40.742422001095164]
    },
    "line": "7"
  },
  {
    "objectid": "1829",
    "url": "http://web.mta.info/nyct/service/",
    "name": "Vernon Blvd & 50th Ave at NE corner",
    "the_geom": {
      "type": "Point",
      "coordinates": [-73.9538929998818, 40.74275900114013]
    },
    "line": "7"
  },
  {
    "objectid": "1830",
    "url": "http://web.mta.info/nyct/service/",
    "name": "Vernon Blvd & 50th Ave at NE corner",
    "the_geom": {
      "type": "Point",
      "coordinates": [-73.95395500036102, 40.74280300130392]
    },
    "line": "7"
  },
  {
    "objectid": "1831",
    "url": "http://web.mta.info/nyct/service/",
    "name": "5th Ave & 42nd St at SW corner",
    "the_geom": {
      "type": "Point",
      "coordinates": [-73.98112999996737, 40.753409001192345]
    },
    "line": "B-D-F-M-7"
  },
  {
    "objectid": "1832",
    "url": "http://web.mta.info/nyct/service/",
    "the_geom": {
      "type": "Point",
      "coordinates": [-74.01314899949054, 40.702033000801315]
    },
    "line": "R-1"
  },
  {
    "objectid": "1833",
    "url": "http://web.mta.info/nyct/service/",
    "the_geom": {
      "type": "Point",
      "coordinates": [-74.01314899949054, 40.702033000801315]
    },
    "line": "R-1"
  },
  {
    "objectid": "1834",
    "url": "http://web.mta.info/nyct/service/",
    "the_geom": {
      "type": "Point",
      "coordinates": [-74.01339699956122, 40.701961000593066]
    },
    "line": "R-1"
  },
  {
    "objectid": "1835",
    "url": "http://web.mta.info/nyct/service/",
    "the_geom": {
      "type": "Point",
      "coordinates": [-74.01339699956122, 40.701961000593066]
    },
    "line": "R-1"
  },
  {
    "objectid": "1836",
    "url": "http://web.mta.info/nyct/service/",
    "name": "3rd Ave & 60th St at SW corner",
    "the_geom": {
      "type": "Point",
      "coordinates": [-73.9663399998183, 40.76209200118288]
    },
    "line": "N-Q-R-4-5-6"
  },
  {
    "objectid": "1837",
    "url": "http://web.mta.info/nyct/service/",
    "name": "3rd Ave & 60th St at NW corner",
    "the_geom": {
      "type": "Point",
      "coordinates": [-73.96615499958986, 40.76235300051639]
    },
    "line": "N-Q-R-4-5-6"
  },
  {
    "objectid": "1838",
    "url": "http://web.mta.info/nyct/service/",
    "name": "3rd Ave & 60th St at SE corner",
    "the_geom": {
      "type": "Point",
      "coordinates": [-73.96610500024993, 40.76199600064206]
    },
    "line": "N-Q-R-4-5-6"
  },
  {
    "objectid": "1839",
    "url": "http://web.mta.info/nyct/service/",
    "name": "3rd Ave & 60th St at NE corner",
    "the_geom": {
      "type": "Point",
      "coordinates": [-73.96591800006873, 40.76225500079114]
    },
    "line": "N-Q-R-4-5-6"
  },
  {
    "objectid": "1840",
    "url": "http://web.mta.info/nyct/service/",
    "name": "Grand Army Plaza & Central Park South at SW corner",
    "the_geom": {
      "type": "Point",
      "coordinates": [-73.97422800020375, 40.76459900091597]
    },
    "line": "N-Q-R"
  },
  {
    "objectid": "1841",
    "url": "http://web.mta.info/nyct/service/",
    "name": "Grand Army Plaza & Central Park South at NE corner",
    "the_geom": {
      "type": "Point",
      "coordinates": [-73.9741909995507, 40.764935001318285]
    },
    "line": "N-Q-R"
  },
  {
    "objectid": "1842",
    "url": "http://web.mta.info/nyct/service/",
    "name": "Grand Army Plaza & Central Park South at NE corner",
    "the_geom": {
      "type": "Point",
      "coordinates": [-73.97399800052692, 40.76485900130548]
    },
    "line": "N-Q-R"
  },
  {
    "objectid": "1843",
    "url": "http://web.mta.info/nyct/service/",
    "name": "7th Ave & 55th St at SW corner",
    "the_geom": {
      "type": "Point",
      "coordinates": [-73.98127799942094, 40.76425800051672]
    },
    "line": "N-Q-R"
  },
  {
    "objectid": "1844",
    "url": "http://web.mta.info/nyct/service/",
    "name": "7th Ave & 55th St at SE corner",
    "the_geom": {
      "type": "Point",
      "coordinates": [-73.98080300054961, 40.76405700096569]
    },
    "line": "N-Q-R"
  },
  {
    "objectid": "1845",
    "url": "http://web.mta.info/nyct/service/",
    "name": "7th Ave & 55th St at NW corner",
    "the_geom": {
      "type": "Point",
      "coordinates": [-73.98116699968199, 40.76437700115304]
    },
    "line": "N-Q-R"
  },
  {
    "objectid": "1846",
    "url": "http://web.mta.info/nyct/service/",
    "name": "7th Ave & 55th St at NE corner",
    "the_geom": {
      "type": "Point",
      "coordinates": [-73.98068299949864, 40.76417900101943]
    },
    "line": "N-Q-R"
  },
  {
    "objectid": "1847",
    "url": "http://web.mta.info/nyct/service/",
    "name": "7th Ave & 49th St at NE corner",
    "the_geom": {
      "type": "Point",
      "coordinates": [-73.98338800031021, 40.76045400110487]
    },
    "line": "N-Q-R"
  },
  {
    "objectid": "1848",
    "url": "http://web.mta.info/nyct/service/",
    "name": "7th Ave & 47th St at SE corner",
    "the_geom": {
      "type": "Point",
      "coordinates": [-73.98441200013421, 40.75903000051641]
    },
    "line": "N-Q-R"
  },
  {
    "objectid": "1849",
    "url": "http://web.mta.info/nyct/service/",
    "name": "Broadway & 47th St at NE corner",
    "the_geom": {
      "type": "Point",
      "coordinates": [-73.9848840002975, 40.759513000523555]
    },
    "line": "N-Q-R"
  },
  {
    "objectid": "1850",
    "url": "http://web.mta.info/nyct/service/",
    "name": "7th Ave & 47th St at NW corner",
    "the_geom": {
      "type": "Point",
      "coordinates": [-73.98470900013602, 40.7593840008346]
    },
    "line": "N-Q-R"
  },
  {
    "objectid": "1851",
    "url": "http://web.mta.info/nyct/service/",
    "name": "7th Ave & 49th St at SE corner",
    "the_geom": {
      "type": "Point",
      "coordinates": [-73.983566999586, 40.760297001282645]
    },
    "line": "N-Q-R"
  },
  {
    "objectid": "1852",
    "url": "http://web.mta.info/nyct/service/",
    "name": "Broadway & 40th St at SE corner",
    "the_geom": {
      "type": "Point",
      "coordinates": [-73.98668000023042, 40.75417200053055]
    },
    "line": "A-C-E-N-Q-R-S-1-2-3-7"
  },
  {
    "objectid": "1853",
    "url": "http://web.mta.info/nyct/service/",
    "name": "Broadway & 40th St at SW corner",
    "the_geom": {
      "type": "Point",
      "coordinates": [-73.98709699980543, 40.754335000754985]
    },
    "line": "A-C-E-N-Q-R-S-1-2-3-7"
  },
  {
    "objectid": "1854",
    "url": "http://web.mta.info/nyct/service/",
    "name": "Broadway & 40th St at NE corner",
    "the_geom": {
      "type": "Point",
      "coordinates": [-73.98662299991872, 40.75430100123342]
    },
    "line": "A-C-E-N-Q-R-S-1-2-3-7"
  },
  {
    "objectid": "1855",
    "url": "http://web.mta.info/nyct/service/",
    "name": "Broadway & 40th St at NW corner",
    "the_geom": {
      "type": "Point",
      "coordinates": [-73.98710799954023, 40.754507001220134]
    },
    "line": "A-C-E-N-Q-R-S-1-2-3-7"
  },
  {
    "objectid": "1856",
    "url": "http://web.mta.info/nyct/service/",
    "name": "6th Ave & 34th St at SE corner",
    "the_geom": {
      "type": "Point",
      "coordinates": [-73.9876200005048, 40.74959000083694]
    },
    "line": "B-D-F-M-N-Q-R"
  },
  {
    "objectid": "1857",
    "url": "http://web.mta.info/nyct/service/",
    "name": "6th Ave & 34th St at NE corner",
    "the_geom": {
      "type": "Point",
      "coordinates": [-73.98749500039362, 40.74989100127905]
    },
    "line": "B-D-F-M-N-Q-R"
  },
  {
    "objectid": "1858",
    "url": "http://web.mta.info/nyct/service/",
    "name": "Broadway & 32nd St at NE corner",
    "the_geom": {
      "type": "Point",
      "coordinates": [-73.98797600009624, 40.74829400133664]
    },
    "line": "B-D-F-M-N-Q-R"
  },
  {
    "objectid": "1859",
    "url": "http://web.mta.info/nyct/service/",
    "name": "Broadway & 32nd St at NW corner",
    "the_geom": {
      "type": "Point",
      "coordinates": [-73.98828799998653, 40.74847700103222]
    },
    "line": "B-D-F-M-N-Q-R"
  },
  {
    "objectid": "1860",
    "url": "http://web.mta.info/nyct/service/",
    "name": "Broadway & 28th St at SW corner",
    "the_geom": {
      "type": "Point",
      "coordinates": [-73.98892300054607, 40.745281001027514]
    },
    "line": "N-R"
  },
  {
    "objectid": "1861",
    "url": "http://web.mta.info/nyct/service/",
    "name": "Broadway & 28th St at NW corner",
    "the_geom": {
      "type": "Point",
      "coordinates": [-73.98901000023109, 40.74548800070196]
    },
    "line": "N-R"
  },
  {
    "objectid": "1862",
    "url": "http://web.mta.info/nyct/service/",
    "name": "Broadway & 22nd St at NE corner",
    "the_geom": {
      "type": "Point",
      "coordinates": [-73.98921700007142, 40.740643000678176]
    },
    "line": "N-R"
  },
  {
    "objectid": "1863",
    "url": "http://web.mta.info/nyct/service/",
    "name": "5th Ave & 22nd St at NE corner",
    "the_geom": {
      "type": "Point",
      "coordinates": [-73.98963900052017, 40.74120800048306]
    },
    "line": "N-R"
  },
  {
    "objectid": "1864",
    "url": "http://web.mta.info/nyct/service/",
    "name": "Broadway & 23rd St at NW corner",
    "the_geom": {
      "type": "Point",
      "coordinates": [-73.98942800017326, 40.7419130008876]
    },
    "line": "N-R"
  },
  {
    "objectid": "1865",
    "url": "http://web.mta.info/nyct/service/",
    "name": "Broadway & 22nd St at NW corner (exit only)",
    "the_geom": {
      "type": "Point",
      "coordinates": [-73.9896320000055, 40.74075800113276]
    },
    "line": "N-R"
  },
  {
    "objectid": "1866",
    "url": "http://web.mta.info/nyct/service/",
    "name": "Broadway & 16th St at SE corner",
    "the_geom": {
      "type": "Point",
      "coordinates": [-73.99060299993691, 40.736339000909425]
    },
    "line": "L-N-Q-R-4-5-6"
  },
  {
    "objectid": "1867",
    "url": "http://web.mta.info/nyct/service/",
    "name": "Broadway & 16th St at NE corner",
    "the_geom": {
      "type": "Point",
      "coordinates": [-73.99044699972468, 40.7365230005194]
    },
    "line": "L-N-Q-R-4-5-6"
  },
  {
    "objectid": "1868",
    "url": "http://web.mta.info/nyct/service/",
    "name": "Broadway & Waverly Pl at NE corner",
    "the_geom": {
      "type": "Point",
      "coordinates": [-73.99305100039543, 40.72967800077502]
    },
    "line": "N-R"
  },
  {
    "objectid": "1869",
    "url": "http://web.mta.info/nyct/service/",
    "name": "Broadway & 8th Ave at SW corner",
    "the_geom": {
      "type": "Point",
      "coordinates": [-73.99273699962603, 40.73064200093977]
    },
    "line": "N-R"
  },
  {
    "objectid": "1870",
    "url": "http://web.mta.info/nyct/service/",
    "name": "Broadway & 8th Ave at SW corner",
    "the_geom": {
      "type": "Point",
      "coordinates": [-73.99261999986997, 40.73059200087505]
    },
    "line": "N-R"
  },
  {
    "objectid": "1871",
    "url": "http://web.mta.info/nyct/service/",
    "name": "Broadway & 8th Ave at NW corner",
    "the_geom": {
      "type": "Point",
      "coordinates": [-73.99251700000923, 40.73071600054057]
    },
    "line": "N-R"
  },
  {
    "objectid": "1872",
    "url": "http://web.mta.info/nyct/service/",
    "name": "Broadway & 8th Ave at NW corner",
    "the_geom": {
      "type": "Point",
      "coordinates": [-73.99264099990762, 40.730773000808504]
    },
    "line": "N-R"
  },
  {
    "objectid": "1873",
    "url": "http://web.mta.info/nyct/service/",
    "name": "Broadway & Prince St at SW corner",
    "the_geom": {
      "type": "Point",
      "coordinates": [-73.99795699956412, 40.724260000652734]
    },
    "line": "N-R"
  },
  {
    "objectid": "1874",
    "url": "http://web.mta.info/nyct/service/",
    "name": "Broadway & Prince St at NW corner",
    "the_geom": {
      "type": "Point",
      "coordinates": [-73.99787499970364, 40.72434400046753]
    },
    "line": "N-R"
  },
  {
    "objectid": "1875",
    "url": "http://web.mta.info/nyct/service/",
    "name": "Broadway & Canal St at NW corner",
    "the_geom": {
      "type": "Point",
      "coordinates": [-74.0019299996069, 40.71958500129559]
    },
    "line": "J-N-Q-R-Z-6"
  },
  {
    "objectid": "1876",
    "url": "http://web.mta.info/nyct/service/",
    "name": "Broadway & Canal St at NW corner",
    "the_geom": {
      "type": "Point",
      "coordinates": [-74.00201900001107, 40.71966000052618]
    },
    "line": "J-N-Q-R-Z-6"
  },
  {
    "objectid": "1877",
    "url": "http://web.mta.info/nyct/service/",
    "name": "Broadway & Canal St at SW corner",
    "the_geom": {
      "type": "Point",
      "coordinates": [-74.00215800047437, 40.71940800114969]
    },
    "line": "J-N-Q-R-Z-6"
  },
  {
    "objectid": "1878",
    "url": "http://web.mta.info/nyct/service/",
    "name": "Broadway & Canal St at SW corner",
    "the_geom": {
      "type": "Point",
      "coordinates": [-74.00223600009556, 40.719460000499545]
    },
    "line": "J-N-Q-R-Z-6"
  },
  {
    "objectid": "1",
    "url": "http://web.mta.info/nyct/service/",
    "name": "15th St & Kings Hwy at SE corner",
    "the_geom": {
      "type": "Point",
      "coordinates": [-73.95776900005806, 40.6088350009905]
    },
    "line": "B-Q"
  },
  {
    "objectid": "2",
    "url": "http://web.mta.info/nyct/service/",
    "name": "15th St & Avenue U at SE corner",
    "the_geom": {
      "type": "Point",
      "coordinates": [-73.95582799955477, 40.59899100093364]
    },
    "line": "B-Q"
  },
  {
    "objectid": "3",
    "url": "http://web.mta.info/nyct/service/",
    "name": "15th St & Gravesend Neck Rd at NE corner",
    "the_geom": {
      "type": "Point",
      "coordinates": [-73.9551200002249, 40.595020000759654]
    },
    "line": "B-Q"
  },
  {
    "objectid": "4",
    "url": "http://web.mta.info/nyct/service/",
    "name": "15th St & Sheepshead Bay Rd at SE corner",
    "the_geom": {
      "type": "Point",
      "coordinates": [-73.954223999936, 40.58730200083184]
    },
    "line": "B-Q"
  },
  {
    "objectid": "5",
    "url": "http://web.mta.info/nyct/service/",
    "the_geom": {
      "type": "Point",
      "coordinates": [-73.96025800029547, 40.57798600098538]
    },
    "line": "B-Q"
  },
  {
    "objectid": "6",
    "url": "http://web.mta.info/nyct/service/",
    "name": "Branch 7 St & Brighton Beach Rd at NE corner",
    "the_geom": {
      "type": "Point",
      "coordinates": [-73.96052400057089, 40.577931001322625]
    },
    "line": "B-Q"
  },
  {
    "objectid": "7",
    "url": "http://web.mta.info/nyct/service/",
    "name": "Branch 7 St & Brighton Beach Rd at SE corner",
    "the_geom": {
      "type": "Point",
      "coordinates": [-73.96023100018317, 40.577746001029006]
    },
    "line": "B-Q"
  },
  {
    "objectid": "8",
    "url": "http://web.mta.info/nyct/service/",
    "name": "Branch 7 St & Brighton Beach Rd at SE corner",
    "the_geom": {
      "type": "Point",
      "coordinates": [-73.96043800015305, 40.577697001130275]
    },
    "line": "B-Q"
  },
  {
    "objectid": "9",
    "url": "http://web.mta.info/nyct/service/",
    "name": "Ocean Pkwy & Brighton Beach Rd at NE corner",
    "the_geom": {
      "type": "Point",
      "coordinates": [-73.96789400057325, 40.57642300107101]
    },
    "line": "Q"
  },
  {
    "objectid": "10",
    "url": "http://web.mta.info/nyct/service/",
    "name": "Ocean Pkwy & Brighton Beach Rd at NE corner",
    "the_geom": {
      "type": "Point",
      "coordinates": [-73.96759099960158, 40.576445000451336]
    },
    "line": "Q"
  },
  {
    "objectid": "11",
    "url": "http://web.mta.info/nyct/service/",
    "name": "Ocean Pkwy & Brighton Beach Rd at SE corner",
    "the_geom": {
      "type": "Point",
      "coordinates": [-73.96787500037775, 40.576209000557355]
    },
    "line": "Q"
  },
  {
    "objectid": "12",
    "url": "http://web.mta.info/nyct/service/",
    "name": "Ocean Pkwy & Brighton Beach Rd at SE corner",
    "the_geom": {
      "type": "Point",
      "coordinates": [-73.96756100003365, 40.57623400093167]
    },
    "line": "Q"
  },
  {
    "objectid": "13",
    "url": "http://web.mta.info/nyct/service/",
    "name": "8th St & Surf Ave at NW corner",
    "the_geom": {
      "type": "Point",
      "coordinates": [-73.97687299966972, 40.575499000848396]
    },
    "line": "F-Q"
  },
  {
    "objectid": "14",
    "url": "http://web.mta.info/nyct/service/",
    "name": "8th St & Surf Ave at NW corner",
    "the_geom": {
      "type": "Point",
      "coordinates": [-73.97674700022307, 40.57592900101308]
    },
    "line": "F-Q"
  },
  {
    "objectid": "15",
    "url": "http://web.mta.info/nyct/service/",
    "name": "Stillwell Ave & Mermaid Ave at SE corner",
    "the_geom": {
      "type": "Point",
      "coordinates": [-73.98084599950501, 40.57690000134535]
    },
    "line": "D-F-N-Q"
  },
  {
    "objectid": "16",
    "url": "http://web.mta.info/nyct/service/",
    "name": "9th Ave & New Utrecht Ave at NE corner",
    "the_geom": {
      "type": "Point",
      "coordinates": [-73.99448899987257, 40.64633700121817]
    },
    "line": "D"
  },
  {
    "objectid": "17",
    "url": "http://web.mta.info/nyct/service/",
    "name": "New Utrecht Ave & 45th St at NW corner",
    "the_geom": {
      "type": "Point",
      "coordinates": [-73.99442299985472, 40.64018500077808]
    },
    "line": "D"
  },
  {
    "objectid": "18",
    "url": "http://web.mta.info/nyct/service/",
    "name": "New Utrecht Ave & 45th St at NE corner",
    "the_geom": {
      "type": "Point",
      "coordinates": [-73.99422000043182, 40.64018000098069]
    },
    "line": "D"
  },
  {
    "objectid": "19",
    "url": "http://web.mta.info/nyct/service/",
    "name": "New Utrecht Ave & 44th St at NW corner",
    "the_geom": {
      "type": "Point",
      "coordinates": [-73.9944109994909, 40.64136000117219]
    },
    "line": "D"
  },
  {
    "objectid": "20",
    "url": "http://web.mta.info/nyct/service/",
    "name": "New Utrecht Ave & 44th St at NE corner",
    "the_geom": {
      "type": "Point",
      "coordinates": [-73.9941880002461, 40.64137900096152]
    },
    "line": "D"
  },
  {
    "objectid": "21",
    "url": "http://web.mta.info/nyct/service/",
    "name": "New Utrecht Ave & 50th St at NW corner",
    "the_geom": {
      "type": "Point",
      "coordinates": [-73.99491500048453, 40.63613300097741]
    },
    "line": "D"
  },
  {
    "objectid": "22",
    "url": "http://web.mta.info/nyct/service/",
    "name": "New Utrecht Ave & 50th St at NE corner",
    "the_geom": {
      "type": "Point",
      "coordinates": [-73.9947020002238, 40.63613900052338]
    },
    "line": "D"
  },
  {
    "objectid": "23",
    "url": "http://web.mta.info/nyct/service/",
    "name": "New Utrecht Ave & 49th St at SW corner",
    "the_geom": {
      "type": "Point",
      "coordinates": [-73.9948789997417, 40.63641500047355]
    },
    "line": "D"
  },
  {
    "objectid": "24",
    "url": "http://web.mta.info/nyct/service/",
    "name": "New Utrecht Ave & 49th St at SE corner",
    "the_geom": {
      "type": "Point",
      "coordinates": [-73.99467300018873, 40.63640500075824]
    },
    "line": "D"
  },
  {
    "objectid": "25",
    "url": "http://web.mta.info/nyct/service/",
    "name": "New Utrecht Ave & 55th St at SE corner",
    "the_geom": {
      "type": "Point",
      "coordinates": [-73.99526200010341, 40.63138900082608]
    },
    "line": "D"
  },
  {
    "objectid": "26",
    "url": "http://web.mta.info/nyct/service/",
    "name": "New Utrecht Ave & 55th St at SW corner",
    "the_geom": {
      "type": "Point",
      "coordinates": [-73.9956429999148, 40.63153800051997]
    },
    "line": "D"
  },
  {
    "objectid": "27",
    "url": "http://web.mta.info/nyct/service/",
    "name": "New Utrecht Ave & 55th St at NE corner",
    "the_geom": {
      "type": "Point",
      "coordinates": [-73.99528300054382, 40.63170900124219]
    },
    "line": "D"
  },
  {
    "objectid": "28",
    "url": "http://web.mta.info/nyct/service/",
    "name": "New Utrecht Ave & 71st St at SW corner",
    "the_geom": {
      "type": "Point",
      "coordinates": [-73.99919500003303, 40.61883400119433]
    },
    "line": "D"
  },
  {
    "objectid": "29",
    "url": "http://web.mta.info/nyct/service/",
    "name": "New Utrecht Ave & 71st St at NW corner",
    "the_geom": {
      "type": "Point",
      "coordinates": [-73.99923999991759, 40.619133001338305]
    },
    "line": "D"
  },
  {
    "objectid": "30",
    "url": "http://web.mta.info/nyct/service/",
    "name": "New Utrecht Ave & 71st St at SE corner",
    "the_geom": {
      "type": "Point",
      "coordinates": [-73.99899500042902, 40.61877000052378]
    },
    "line": "D"
  },
  {
    "objectid": "31",
    "url": "http://web.mta.info/nyct/service/",
    "name": "New Utrecht Ave & 71st St at NE corner",
    "the_geom": {
      "type": "Point",
      "coordinates": [-73.99883200058711, 40.6188890009745]
    },
    "line": "D"
  },
  {
    "objectid": "32",
    "url": "http://web.mta.info/nyct/service/",
    "name": "New Utrecht Ave & 79th St at NW corner",
    "the_geom": {
      "type": "Point",
      "coordinates": [-74.0008919994665, 40.61285500054176]
    },
    "line": "D"
  },
  {
    "objectid": "33",
    "url": "http://web.mta.info/nyct/service/",
    "name": "New Utrecht Ave & 79th St at NE corner",
    "the_geom": {
      "type": "Point",
      "coordinates": [-74.00072099959921, 40.61284700061145]
    },
    "line": "D"
  },
  {
    "objectid": "34",
    "url": "http://web.mta.info/nyct/service/",
    "name": "18th Ave & 85th St at SE corner",
    "the_geom": {
      "type": "Point",
      "coordinates": [-74.001491000569, 40.60760200112182]
    },
    "line": "D"
  },
  {
    "objectid": "35",
    "url": "http://web.mta.info/nyct/service/",
    "name": "18th Ave & 85th St at SE corner",
    "the_geom": {
      "type": "Point",
      "coordinates": [-74.00189400049318, 40.60772300097482]
    },
    "line": "D"
  },
  {
    "objectid": "36",
    "url": "http://web.mta.info/nyct/service/",
    "name": "18th Ave & 85th St at NE corner",
    "the_geom": {
      "type": "Point",
      "coordinates": [-74.00162800005522, 40.607897001127455]
    },
    "line": "D"
  },
  {
    "objectid": "37",
    "url": "http://web.mta.info/nyct/service/",
    "name": "20th Ave & 86th St at SE corner",
    "the_geom": {
      "type": "Point",
      "coordinates": [-73.99816400038932, 40.60443900088166]
    },
    "line": "D"
  },
  {
    "objectid": "38",
    "url": "http://web.mta.info/nyct/service/",
    "name": "20th Ave & 86th St at NE corner",
    "the_geom": {
      "type": "Point",
      "coordinates": [-73.9980069998917, 40.60458700083699]
    },
    "line": "D"
  },
  {
    "objectid": "39",
    "url": "http://web.mta.info/nyct/service/",
    "name": "20th Ave & 86th St at SW corner",
    "the_geom": {
      "type": "Point",
      "coordinates": [-73.99849799968783, 40.6046310005965]
    },
    "line": "D"
  },
  {
    "objectid": "40",
    "url": "http://web.mta.info/nyct/service/",
    "name": "20th Ave & 86th St at NW corner",
    "the_geom": {
      "type": "Point",
      "coordinates": [-73.99834900054789, 40.60478900051507]
    },
    "line": "D"
  },
  {
    "objectid": "41",
    "url": "http://web.mta.info/nyct/service/",
    "name": "Bay Pkwy & 86th St at SE corner",
    "the_geom": {
      "type": "Point",
      "coordinates": [-73.99369600038919, 40.601726001220165]
    },
    "line": "D"
  },
  {
    "objectid": "42",
    "url": "http://web.mta.info/nyct/service/",
    "name": "Bay Pkwy & 86th St at NE corner",
    "the_geom": {
      "type": "Point",
      "coordinates": [-73.99353800042097, 40.60189800117387]
    },
    "line": "D"
  },
  {
    "objectid": "43",
    "url": "http://web.mta.info/nyct/service/",
    "name": "Bay Pkwy & 86th St at SW corner",
    "the_geom": {
      "type": "Point",
      "coordinates": [-73.99413000010537, 40.60199300109585]
    },
    "line": "D"
  },
  {
    "objectid": "44",
    "url": "http://web.mta.info/nyct/service/",
    "name": "Bay Pkwy & 86th St at NW corner",
    "the_geom": {
      "type": "Point",
      "coordinates": [-73.99394800015628, 40.60215000128454]
    },
    "line": "D"
  },
  {
    "objectid": "45",
    "url": "http://web.mta.info/nyct/service/",
    "name": "25th Ave & 86th St at NE corner",
    "the_geom": {
      "type": "Point",
      "coordinates": [-73.9869580004091, 40.597889001091715]
    },
    "line": "D"
  },
  {
    "objectid": "46",
    "url": "http://web.mta.info/nyct/service/",
    "name": "25th Ave & 86th St at NW corner",
    "the_geom": {
      "type": "Point",
      "coordinates": [-73.9872790005634, 40.59810000066808]
    },
    "line": "D"
  },
  {
    "objectid": "47",
    "url": "http://web.mta.info/nyct/service/",
    "name": "25th Ave & 86th St at SE corner",
    "the_geom": {
      "type": "Point",
      "coordinates": [-73.98711199986317, 40.59775100078925]
    },
    "line": "D"
  },
  {
    "objectid": "48",
    "url": "http://web.mta.info/nyct/service/",
    "name": "25th Ave & 86th St at SW corner",
    "the_geom": {
      "type": "Point",
      "coordinates": [-73.98744200051077, 40.59795200062024]
    },
    "line": "D"
  },
  {
    "objectid": "49",
    "url": "http://web.mta.info/nyct/service/",
    "name": "Stillwell Ave & Bay 50th St at SW corner",
    "the_geom": {
      "type": "Point",
      "coordinates": [-73.98373500008773, 40.5880220010568]
    },
    "line": "D"
  },
  {
    "objectid": "50",
    "url": "http://web.mta.info/nyct/service/",
    "name": "Stillwell Ave & Bay 50th St at SE corner",
    "the_geom": {
      "type": "Point",
      "coordinates": [-73.9834979996632, 40.58806600105337]
    },
    "line": "D"
  },
  {
    "objectid": "51",
    "url": "http://web.mta.info/nyct/service/",
    "name": "Stillwell Ave & Bay 50th St at SW corner",
    "the_geom": {
      "type": "Point",
      "coordinates": [-73.98379099979309, 40.588305001122556]
    },
    "line": "D"
  },
  {
    "objectid": "52",
    "url": "http://web.mta.info/nyct/service/",
    "name": "Stillwell Ave & Bay 50th St at SE corner",
    "the_geom": {
      "type": "Point",
      "coordinates": [-73.98354300013526, 40.58834800097843]
    },
    "line": "D"
  },
  {
    "objectid": "53",
    "url": "http://web.mta.info/nyct/service/",
    "name": "8th Ave & 62nd St at NW corner",
    "the_geom": {
      "type": "Point",
      "coordinates": [-74.01072599969021, 40.634552000604174]
    },
    "line": "N"
  },
  {
    "objectid": "54",
    "url": "http://web.mta.info/nyct/service/",
    "name": "Fort Hamilton Pkwy & 62nd St at NE corner",
    "the_geom": {
      "type": "Point",
      "coordinates": [-74.00665799960328, 40.63217900062705]
    },
    "line": "N"
  },
  {
    "objectid": "55",
    "url": "http://web.mta.info/nyct/service/",
    "name": "New Utrecht Ave & 62nd St at SE corner",
    "the_geom": {
      "type": "Point",
      "coordinates": [-73.99682999968425, 40.62560600131959]
    },
    "line": "D-N"
  },
  {
    "objectid": "56",
    "url": "http://web.mta.info/nyct/service/",
    "name": "18th Ave & 64th St at NW corner",
    "the_geom": {
      "type": "Point",
      "coordinates": [-73.98940999985166, 40.620062000905534]
    },
    "line": "N"
  },
  {
    "objectid": "57",
    "url": "http://web.mta.info/nyct/service/",
    "name": "20th Ave & 64th St at NE corner",
    "the_geom": {
      "type": "Point",
      "coordinates": [-73.98484000011217, 40.617341001073875]
    },
    "line": "N"
  },
  {
    "objectid": "58",
    "url": "http://web.mta.info/nyct/service/",
    "name": "Bay Pkwy & 66th St at SE corner",
    "the_geom": {
      "type": "Point",
      "coordinates": [-73.98208399986588, 40.61298900111904]
    },
    "line": "N"
  },
  {
    "objectid": "59",
    "url": "http://web.mta.info/nyct/service/",
    "name": "7th St & Kings Hwy at NW corner",
    "the_geom": {
      "type": "Point",
      "coordinates": [-73.98057800010078, 40.60510700076654]
    },
    "line": "N"
  },
  {
    "objectid": "60",
    "url": "http://web.mta.info/nyct/service/",
    "name": "8th St & Avenue U at NE corner",
    "the_geom": {
      "type": "Point",
      "coordinates": [-73.97894299952885, 40.59645900059184]
    },
    "line": "N"
  },
  {
    "objectid": "61",
    "url": "http://web.mta.info/nyct/service/",
    "name": "8th St & 86th St at SE corner",
    "the_geom": {
      "type": "Point",
      "coordinates": [-73.97822700039235, 40.59272400119584]
    },
    "line": "N"
  },
  {
    "objectid": "62",
    "url": "http://web.mta.info/nyct/service/",
    "name": "121st St & Jamaica Ave at SW corner",
    "the_geom": {
      "type": "Point",
      "coordinates": [-73.82933199999007, 40.70025400130229]
    },
    "line": "J-Z"
  },
  {
    "objectid": "63",
    "url": "http://web.mta.info/nyct/service/",
    "name": "121st St & Jamaica Ave at NW corner",
    "the_geom": {
      "type": "Point",
      "coordinates": [-73.82923100020398, 40.70052000103535]
    },
    "line": "J-Z"
  },
  {
    "objectid": "64",
    "url": "http://web.mta.info/nyct/service/",
    "name": "111th St & Jamaica Blvd at NE corner",
    "the_geom": {
      "type": "Point",
      "coordinates": [-73.83704200031487, 40.696771000936984]
    },
    "line": "J"
  },
  {
    "objectid": "65",
    "url": "http://web.mta.info/nyct/service/",
    "name": "111th St & Jamaica Blvd at SE corner",
    "the_geom": {
      "type": "Point",
      "coordinates": [-73.83715599995726, 40.69705500070232]
    },
    "line": "J"
  },
  {
    "objectid": "66",
    "url": "http://web.mta.info/nyct/service/",
    "name": "104th St & Jamaica Ave at SE corner",
    "the_geom": {
      "type": "Point",
      "coordinates": [-73.84329800036508, 40.69503300049355]
    },
    "line": "J-Z"
  },
  {
    "objectid": "67",
    "url": "http://web.mta.info/nyct/service/",
    "name": "104th St & Jamaica Ave at NE corner",
    "the_geom": {
      "type": "Point",
      "coordinates": [-73.8432230004546, 40.69526700049504]
    },
    "line": "J-Z"
  },
  {
    "objectid": "68",
    "url": "http://web.mta.info/nyct/service/",
    "name": "Woodhaven Blvd & Jamaica Ave at SW corner",
    "the_geom": {
      "type": "Point",
      "coordinates": [-73.85255599957513, 40.69345100050823]
    },
    "line": "J-Z"
  },
  {
    "objectid": "69",
    "url": "http://web.mta.info/nyct/service/",
    "name": "Woodhaven Blvd & Jamaica Ave at NW corner",
    "the_geom": {
      "type": "Point",
      "coordinates": [-73.85260800014532, 40.69356300102105]
    },
    "line": "J-Z"
  },
  {
    "objectid": "70",
    "url": "http://web.mta.info/nyct/service/",
    "name": "85th St & Jamaica Ave at SE corner",
    "the_geom": {
      "type": "Point",
      "coordinates": [-73.85897499964982, 40.69238100119143]
    },
    "line": "J"
  },
  {
    "objectid": "71",
    "url": "http://web.mta.info/nyct/service/",
    "name": "85th St & Jamaica Ave at NE corner",
    "the_geom": {
      "type": "Point",
      "coordinates": [-73.85909799998258, 40.69266600067277]
    },
    "line": "J"
  },
  {
    "objectid": "72",
    "url": "http://web.mta.info/nyct/service/",
    "name": "75th St & Jamaica at SE corner",
    "the_geom": {
      "type": "Point",
      "coordinates": [-73.86642500006252, 40.691285000919926]
    },
    "line": "J-Z"
  },
  {
    "objectid": "73",
    "url": "http://web.mta.info/nyct/service/",
    "name": "75th St & Jamaica at NW corner",
    "the_geom": {
      "type": "Point",
      "coordinates": [-73.86661000037445, 40.69147900073444]
    },
    "line": "J-Z"
  },
  {
    "objectid": "74",
    "url": "http://web.mta.info/nyct/service/",
    "name": "Autumn Ave & Jamaica Ave at SE corner",
    "the_geom": {
      "type": "Point",
      "coordinates": [-73.87163000026061, 40.690142000989724]
    },
    "line": "J"
  },
  {
    "objectid": "75",
    "url": "http://web.mta.info/nyct/service/",
    "name": "Crescent St & Jamaica Ave at SE corner",
    "the_geom": {
      "type": "Point",
      "coordinates": [-73.87344900014045, 40.68947000062051]
    },
    "line": "J"
  },
  {
    "objectid": "76",
    "url": "http://web.mta.info/nyct/service/",
    "name": "Crescent St & Jamaica Ave at NE corner",
    "the_geom": {
      "type": "Point",
      "coordinates": [-73.87355499976613, 40.689596000921384]
    },
    "line": "J"
  },
  {
    "objectid": "77",
    "url": "http://web.mta.info/nyct/service/",
    "name": "Pine St & Fulton St at SE corner",
    "the_geom": {
      "type": "Point",
      "coordinates": [-73.8725480005001, 40.68347800076632]
    },
    "line": "J-Z"
  },
  {
    "objectid": "78",
    "url": "http://web.mta.info/nyct/service/",
    "name": "Pine St & Fulton St at NE corner",
    "the_geom": {
      "type": "Point",
      "coordinates": [-73.87259999991767, 40.68358800131416]
    },
    "line": "J-Z"
  },
  {
    "objectid": "79",
    "url": "http://web.mta.info/nyct/service/",
    "name": "Norwood Ave & Fulton St at NE corner",
    "the_geom": {
      "type": "Point",
      "coordinates": [-73.87900700042076, 40.68175700074933]
    },
    "line": "J-Z"
  },
  {
    "objectid": "80",
    "url": "http://web.mta.info/nyct/service/",
    "name": "Norwood",
    "the_geom": {
      "type": "Point",
      "coordinates": [-73.8789840000952, 40.68164300107813]
    },
    "line": "J-Z"
  },
  {
    "objectid": "81",
    "url": "http://web.mta.info/nyct/service/",
    "name": "Cleveland St & Fulton St at NW corner",
    "the_geom": {
      "type": "Point",
      "coordinates": [-73.88573099972542, 40.679656001316204]
    },
    "line": "J"
  },
  {
    "objectid": "82",
    "url": "http://web.mta.info/nyct/service/",
    "name": "Cleveland",
    "the_geom": {
      "type": "Point",
      "coordinates": [-73.88571600056578, 40.6795300007475]
    },
    "line": "J"
  },
  {
    "objectid": "83",
    "url": "http://web.mta.info/nyct/service/",
    "name": "Van Siclen Ave & Fulton St at SW corner",
    "the_geom": {
      "type": "Point",
      "coordinates": [-73.89171100013446, 40.67784700081332]
    },
    "line": "J-Z"
  },
  {
    "objectid": "84",
    "url": "http://web.mta.info/nyct/service/",
    "name": "Van Siclen",
    "the_geom": {
      "type": "Point",
      "coordinates": [-73.89156599958824, 40.6778640010583]
    },
    "line": "J-Z"
  },
  {
    "objectid": "85",
    "url": "http://web.mta.info/nyct/service/",
    "the_geom": {
      "type": "Point",
      "coordinates": [-73.89983400030188, 40.676755001150994]
    },
    "line": "J"
  },
  {
    "objectid": "86",
    "url": "http://web.mta.info/nyct/service/",
    "the_geom": {
      "type": "Point",
      "coordinates": [-73.89951000022218, 40.676803000654886]
    },
    "line": "J"
  },
  {
    "objectid": "87",
    "url": "http://web.mta.info/nyct/service/",
    "name": "Moffat St & Broadway at NW corner",
    "the_geom": {
      "type": "Point",
      "coordinates": [-73.91133399968001, 40.68331300061073]
    },
    "line": "J-Z"
  },
  {
    "objectid": "88",
    "url": "http://web.mta.info/nyct/service/",
    "name": "Moffat St & Broadway at SW corner",
    "the_geom": {
      "type": "Point",
      "coordinates": [-73.91124200031585, 40.68341700123608]
    },
    "line": "J-Z"
  },
  {
    "objectid": "89",
    "url": "http://web.mta.info/nyct/service/",
    "name": "Weirfield St & Broadway at SE corner",
    "the_geom": {
      "type": "Point",
      "coordinates": [-73.91580700053865, 40.68584700080485]
    },
    "line": "J"
  },
  {
    "objectid": "90",
    "url": "http://web.mta.info/nyct/service/",
    "name": "Weirfield St & Broadway at NE corner",
    "the_geom": {
      "type": "Point",
      "coordinates": [-73.91571299993404, 40.68594600114954]
    },
    "line": "J"
  },
  {
    "objectid": "91",
    "url": "http://web.mta.info/nyct/service/",
    "name": "Linden St & Broadway at SW corner",
    "the_geom": {
      "type": "Point",
      "coordinates": [-73.92316100003609, 40.69003000093132]
    },
    "line": "J-Z"
  },
  {
    "objectid": "92",
    "url": "http://web.mta.info/nyct/service/",
    "name": "Linden St & Broadway at NW corner",
    "the_geom": {
      "type": "Point",
      "coordinates": [-73.9230620005719, 40.69014200099831]
    },
    "line": "J-Z"
  },
  {
    "objectid": "93",
    "url": "http://web.mta.info/nyct/service/",
    "name": "Patchen Ave & Broadway at NE corner",
    "the_geom": {
      "type": "Point",
      "coordinates": [-73.92825699993675, 40.69293000085254]
    },
    "line": "J"
  },
  {
    "objectid": "94",
    "url": "http://web.mta.info/nyct/service/",
    "name": "Patchen Ave & Broadway at SW corner",
    "the_geom": {
      "type": "Point",
      "coordinates": [-73.92793999986904, 40.69292900134402]
    },
    "line": "J"
  },
  {
    "objectid": "95",
    "url": "http://web.mta.info/nyct/service/",
    "name": "Broadway & Myrtle Ave at NW corner",
    "the_geom": {
      "type": "Point",
      "coordinates": [-73.93546099976311, 40.696893001205396]
    },
    "line": "J-M-Z"
  },
  {
    "objectid": "96",
    "url": "http://web.mta.info/nyct/service/",
    "name": "Broadway & Myrtle Ave at SW corner",
    "the_geom": {
      "type": "Point",
      "coordinates": [-73.93555900013396, 40.69698700120347]
    },
    "line": "J-M-Z"
  },
  {
    "objectid": "97",
    "url": "http://web.mta.info/nyct/service/",
    "name": "Flushing Ave & Broadway at SE corner",
    "the_geom": {
      "type": "Point",
      "coordinates": [-73.94199499953496, 40.70062900108737]
    },
    "line": "J-M"
  },
  {
    "objectid": "98",
    "url": "http://web.mta.info/nyct/service/",
    "the_geom": {
      "type": "Point",
      "coordinates": [-73.94167200037049, 40.70072000120875]
    },
    "line": "J-M"
  },
  {
    "objectid": "99",
    "url": "http://web.mta.info/nyct/service/",
    "name": "Flushing Ave & Broadway at SE corner",
    "the_geom": {
      "type": "Point",
      "coordinates": [-73.94217300005141, 40.700634001147975]
    },
    "line": "J-M"
  },
  {
    "objectid": "100",
    "url": "http://web.mta.info/nyct/service/",
    "name": "Flushing Ave & Broadway at NW corner",
    "the_geom": {
      "type": "Point",
      "coordinates": [-73.94170999997885, 40.7008470007834]
    },
    "line": "J-M"
  },
  {
    "objectid": "101",
    "url": "http://web.mta.info/nyct/service/",
    "name": "Moore St & Broadway at SW corner",
    "the_geom": {
      "type": "Point",
      "coordinates": [-73.94832399943942, 40.704279000920536]
    },
    "line": "J-M"
  },
  {
    "objectid": "102",
    "url": "http://web.mta.info/nyct/service/",
    "name": "Moore St & Broadway at NW corner",
    "the_geom": {
      "type": "Point",
      "coordinates": [-73.94822299970957, 40.704396001346986]
    },
    "line": "J-M"
  },
  {
    "objectid": "103",
    "url": "http://web.mta.info/nyct/service/",
    "name": "Hooper St & Broadway at SW corner",
    "the_geom": {
      "type": "Point",
      "coordinates": [-73.95436999956549, 40.70711700077497]
    },
    "line": "J-M"
  },
  {
    "objectid": "104",
    "url": "http://web.mta.info/nyct/service/",
    "name": "Hooper St & Broadway at NW corner",
    "the_geom": {
      "type": "Point",
      "coordinates": [-73.95432599948872, 40.707248000525176]
    },
    "line": "J-M"
  },
  {
    "objectid": "105",
    "url": "http://web.mta.info/nyct/service/",
    "name": "Marcy Ave & Broadway at NW corner",
    "the_geom": {
      "type": "Point",
      "coordinates": [-73.95789299953161, 40.70856500125251]
    },
    "line": "J-M-Z"
  },
  {
    "objectid": "106",
    "url": "http://web.mta.info/nyct/service/",
    "name": "Marcy Ave & Broadway at NE corner",
    "the_geom": {
      "type": "Point",
      "coordinates": [-73.95768900053834, 40.70840900113537]
    },
    "line": "J-M-Z"
  },
  {
    "objectid": "107",
    "url": "http://web.mta.info/nyct/service/",
    "name": "Marcy Ave & Broadway at NW corner",
    "the_geom": {
      "type": "Point",
      "coordinates": [-73.95804799973861, 40.7085290004772]
    },
    "line": "J-M-Z"
  },
  {
    "objectid": "108",
    "url": "http://web.mta.info/nyct/service/",
    "name": "Norfolk St & Delancey St at NE corner",
    "the_geom": {
      "type": "Point",
      "coordinates": [-73.9871809998949, 40.718410001156236]
    },
    "line": "F-J-M-Z"
  },
  {
    "objectid": "109",
    "url": "http://web.mta.info/nyct/service/",
    "name": "Norfolk St & Delancey St at NW corner",
    "the_geom": {
      "type": "Point",
      "coordinates": [-73.98765000027731, 40.718551001133584]
    },
    "line": "F-J-M-Z"
  },
  {
    "objectid": "110",
    "url": "http://web.mta.info/nyct/service/",
    "name": "Bowery & Delancey St at SE corner",
    "the_geom": {
      "type": "Point",
      "coordinates": [-73.99357600025895, 40.71997700124279]
    },
    "line": "J-Z"
  },
  {
    "objectid": "111",
    "url": "http://web.mta.info/nyct/service/",
    "name": "Bowery & Delencey St at NE corner",
    "the_geom": {
      "type": "Point",
      "coordinates": [-73.9934109994752, 40.72029100055331]
    },
    "line": "J-Z"
  },
  {
    "objectid": "112",
    "url": "http://web.mta.info/nyct/service/",
    "name": "69th St & Metropolitan Ave at SW corner",
    "the_geom": {
      "type": "Point",
      "coordinates": [-73.88954000033932, 40.71208200050858]
    },
    "line": "M"
  },
  {
    "objectid": "113",
    "url": "http://web.mta.info/nyct/service/",
    "name": "Fresh Pond Rd & 67th Ave at SE corner",
    "the_geom": {
      "type": "Point",
      "coordinates": [-73.89623200021862, 40.70595500075515]
    },
    "line": "M"
  },
  {
    "objectid": "114",
    "url": "http://web.mta.info/nyct/service/",
    "name": "62nd St & 67th Ave at SE corner",
    "the_geom": {
      "type": "Point",
      "coordinates": [-73.89555899945998, 40.70611500110734]
    },
    "line": "M"
  },
  {
    "objectid": "115",
    "url": "http://web.mta.info/nyct/service/",
    "name": "Forest Ave & Myrtle Ave at NW corner",
    "the_geom": {
      "type": "Point",
      "coordinates": [-73.9022430000838, 40.70472900065514]
    },
    "line": "M"
  },
  {
    "objectid": "116",
    "url": "http://web.mta.info/nyct/service/",
    "name": "Forest Ave & Myrtle Ave at SW corner",
    "the_geom": {
      "type": "Point",
      "coordinates": [-73.90238900043751, 40.70444300124261]
    },
    "line": "M"
  },
  {
    "objectid": "117",
    "url": "http://web.mta.info/nyct/service/",
    "name": "Myrtle Ave & Seneca Ave at NE corner",
    "the_geom": {
      "type": "Point",
      "coordinates": [-73.90751499974346, 40.7027800005958]
    },
    "line": "M"
  },
  {
    "objectid": "118",
    "url": "http://web.mta.info/nyct/service/",
    "name": "Myrtle Ave & Seneca Ave at SW corner",
    "the_geom": {
      "type": "Point",
      "coordinates": [-73.90789399983775, 40.70283500071398]
    },
    "line": "M"
  },
  {
    "objectid": "119",
    "url": "http://web.mta.info/nyct/service/",
    "name": "Myrtle Ave & Greene Ave at NW corner",
    "the_geom": {
      "type": "Point",
      "coordinates": [-73.91865500019517, 40.69871700063333]
    },
    "line": "M"
  },
  {
    "objectid": "120",
    "url": "http://web.mta.info/nyct/service/",
    "name": "Myrtle Ave & Greene Ave at SE corner",
    "the_geom": {
      "type": "Point",
      "coordinates": [-73.91877099960458, 40.6989130007839]
    },
    "line": "M"
  },
  {
    "objectid": "121",
    "url": "http://web.mta.info/nyct/service/",
    "name": "Myrtle Ave & Cedar St at NW corner",
    "the_geom": {
      "type": "Point",
      "coordinates": [-73.92637100008922, 40.69803300067644]
    },
    "line": "M"
  },
  {
    "objectid": "122",
    "url": "http://web.mta.info/nyct/service/",
    "name": "Myrtle Ave & Cedar St at SW corner",
    "the_geom": {
      "type": "Point",
      "coordinates": [-73.92652499982937, 40.697876001059875]
    },
    "line": "M"
  },
  {
    "objectid": "123",
    "url": "http://web.mta.info/nyct/service/",
    "name": "8th Ave & 14th St at SE corner",
    "the_geom": {
      "type": "Point",
      "coordinates": [-74.00238899971183, 40.739550001066604]
    },
    "line": "A-C-E-L"
  },
  {
    "objectid": "124",
    "url": "http://web.mta.info/nyct/service/",
    "name": "8th Ave & 14th St at SW corner",
    "the_geom": {
      "type": "Point",
      "coordinates": [-74.00280399953128, 40.73973400046957]
    },
    "line": "A-C-E-L"
  },
  {
    "objectid": "125",
    "url": "http://web.mta.info/nyct/service/",
    "name": "3rd Ave & 14th St at SE corner",
    "the_geom": {
      "type": "Point",
      "coordinates": [-73.98665699977253, 40.73296100058313]
    },
    "line": "L"
  },
  {
    "objectid": "126",
    "url": "http://web.mta.info/nyct/service/",
    "name": "3rd Ave & 14th St at SE corner",
    "the_geom": {
      "type": "Point",
      "coordinates": [-73.98704099981326, 40.7331340005307]
    },
    "line": "L"
  },
  {
    "objectid": "127",
    "url": "http://web.mta.info/nyct/service/",
    "name": "1st Ave & 14th St at NE corner",
    "the_geom": {
      "type": "Point",
      "coordinates": [-73.98211199956941, 40.731397001089974]
    },
    "line": "L"
  },
  {
    "objectid": "128",
    "url": "http://web.mta.info/nyct/service/",
    "name": "1st Ave & 14th St at NE corner",
    "the_geom": {
      "type": "Point",
      "coordinates": [-73.98214500027808, 40.73148300115578]
    },
    "line": "L"
  },
  {
    "objectid": "129",
    "url": "http://web.mta.info/nyct/service/",
    "name": "Bedford Ave & N 7th St at SE corner",
    "the_geom": {
      "type": "Point",
      "coordinates": [-73.95769499981996, 40.71771400067521]
    },
    "line": "L"
  },
  {
    "objectid": "130",
    "url": "http://web.mta.info/nyct/service/",
    "name": "Bedford Ave & N 7th St at NE corner",
    "the_geom": {
      "type": "Point",
      "coordinates": [-73.95756800032262, 40.717821001175004]
    },
    "line": "L"
  },
  {
    "objectid": "131",
    "url": "http://web.mta.info/nyct/service/",
    "name": "Graham Ave & Metropolitan Ave at NE corner",
    "the_geom": {
      "type": "Point",
      "coordinates": [-73.94428699951894, 40.71466100106637]
    },
    "line": "L"
  },
  {
    "objectid": "132",
    "url": "http://web.mta.info/nyct/service/",
    "name": "Graham Ave & Metropolitan Ave at SW corner",
    "the_geom": {
      "type": "Point",
      "coordinates": [-73.94457000057422, 40.714613000884]
    },
    "line": "L"
  },
  {
    "objectid": "133",
    "url": "http://web.mta.info/nyct/service/",
    "name": "Grand St & Bushwick Ave at SW corner",
    "the_geom": {
      "type": "Point",
      "coordinates": [-73.94043299957767, 40.71191200130368]
    },
    "line": "L"
  },
  {
    "objectid": "134",
    "url": "http://web.mta.info/nyct/service/",
    "name": "Grand St & Bushwick Ave at SE corner",
    "the_geom": {
      "type": "Point",
      "coordinates": [-73.94066799998177, 40.71218200127148]
    },
    "line": "L"
  },
  {
    "objectid": "135",
    "url": "http://web.mta.info/nyct/service/",
    "name": "Montrose Ave & Bushwick Ave at SW corner",
    "the_geom": {
      "type": "Point",
      "coordinates": [-73.94004399943948, 40.7077230006109]
    },
    "line": "L"
  },
  {
    "objectid": "136",
    "url": "http://web.mta.info/nyct/service/",
    "name": "Montrose Ave & Bushwick Ave at NW corner",
    "the_geom": {
      "type": "Point",
      "coordinates": [-73.93974899951226, 40.70781900048571]
    },
    "line": "L"
  },
  {
    "objectid": "137",
    "url": "http://web.mta.info/nyct/service/",
    "name": "Morgan Ave & Harrison Pl at SE corner",
    "the_geom": {
      "type": "Point",
      "coordinates": [-73.93169600055865, 40.70631700076304]
    },
    "line": "L"
  },
  {
    "objectid": "138",
    "url": "http://web.mta.info/nyct/service/",
    "name": "Morgan Ave & Harrison Pl at SW corner",
    "the_geom": {
      "type": "Point",
      "coordinates": [-73.93196000048461, 40.706210000733776]
    },
    "line": "L"
  },
  {
    "objectid": "139",
    "url": "http://web.mta.info/nyct/service/",
    "name": "Starr St & Wyckoff Ave at SE corner",
    "the_geom": {
      "type": "Point",
      "coordinates": [-73.92203599997379, 40.70594300064172]
    },
    "line": "L"
  },
  {
    "objectid": "140",
    "url": "http://web.mta.info/nyct/service/",
    "name": "Starr St & Wyckoff Ave at NE corner",
    "the_geom": {
      "type": "Point",
      "coordinates": [-73.92190999960397, 40.70622800103714]
    },
    "line": "L"
  },
  {
    "objectid": "141",
    "url": "http://web.mta.info/nyct/service/",
    "name": "Starr St & Wyckoff Ave at SW corner",
    "the_geom": {
      "type": "Point",
      "coordinates": [-73.92230000056091, 40.7060820011396]
    },
    "line": "L"
  },
  {
    "objectid": "142",
    "url": "http://web.mta.info/nyct/service/",
    "name": "Starr St & Wyckoff Ave at NW corner",
    "the_geom": {
      "type": "Point",
      "coordinates": [-73.92206200054775, 40.706320001275316]
    },
    "line": "L"
  },
  {
    "objectid": "143",
    "url": "http://web.mta.info/nyct/service/",
    "name": "DeKalb Ave & Wycoff Ave at SE corner",
    "the_geom": {
      "type": "Point",
      "coordinates": [-73.91927300030697, 40.70415300094857]
    },
    "line": "L"
  },
  {
    "objectid": "144",
    "url": "http://web.mta.info/nyct/service/",
    "name": "DeKalb Ave & Wycoff Ave at NE corner",
    "the_geom": {
      "type": "Point",
      "coordinates": [-73.91902600014936, 40.704379000941465]
    },
    "line": "L"
  },
  {
    "objectid": "145",
    "url": "http://web.mta.info/nyct/service/",
    "name": "DeKalb Ave & Wycoff Ave at SW corner",
    "the_geom": {
      "type": "Point",
      "coordinates": [-73.91945199951506, 40.70432600123379]
    },
    "line": "L"
  },
  {
    "objectid": "146",
    "url": "http://web.mta.info/nyct/service/",
    "name": "DeKalb Ave & Wycoff Ave at NW corner",
    "the_geom": {
      "type": "Point",
      "coordinates": [-73.9191840002381, 40.70448000083975]
    },
    "line": "L"
  },
  {
    "objectid": "147",
    "url": "http://web.mta.info/nyct/service/",
    "name": "George St & Wycoff Ave at NE corner",
    "the_geom": {
      "type": "Point",
      "coordinates": [-73.9044300000085, 40.69609400045734]
    },
    "line": "L"
  },
  {
    "objectid": "148",
    "url": "http://web.mta.info/nyct/service/",
    "name": "George St & Wycoff Ave at NW corner",
    "the_geom": {
      "type": "Point",
      "coordinates": [-73.90466499951953, 40.69606900080405]
    },
    "line": "L"
  },
  {
    "objectid": "149",
    "url": "http://web.mta.info/nyct/service/",
    "name": "7th Ave & 53rd St at NE corner",
    "the_geom": {
      "type": "Point",
      "coordinates": [-73.98157800036606, 40.762937001104106]
    },
    "line": "B-D-E"
  },
  {
    "objectid": "150",
    "url": "http://web.mta.info/nyct/service/",
    "name": "7th Ave & 53rd St at SE corner",
    "the_geom": {
      "type": "Point",
      "coordinates": [-73.98168999986704, 40.762793001305745]
    },
    "line": "B-D-E"
  },
  {
    "objectid": "151",
    "url": "http://web.mta.info/nyct/service/",
    "name": "Parsons Blvd & Archer Ave at NE corner",
    "the_geom": {
      "type": "Point",
      "coordinates": [-73.799784000399, 40.70235300071414]
    },
    "line": "E-J-Z"
  },
  {
    "objectid": "152",
    "url": "http://web.mta.info/nyct/service/",
    "name": "Parsons Blvd & Archer Ave at NE corner",
    "the_geom": {
      "type": "Point",
      "coordinates": [-73.80174000007797, 40.701855000946445]
    },
    "line": "E-J-Z"
  },
  {
    "objectid": "153",
    "url": "http://web.mta.info/nyct/service/",
    "name": "Parsons Blvd & Archer Ave at NE corner",
    "the_geom": {
      "type": "Point",
      "coordinates": [-73.79984299959095, 40.70282100056658]
    },
    "line": "E-J-Z"
  },
  {
    "objectid": "154",
    "url": "http://web.mta.info/nyct/service/",
    "name": "Parsons Blvd & Archer Ave at SW corner",
    "the_geom": {
      "type": "Point",
      "coordinates": [-73.79999099958937, 40.70231100131282]
    },
    "line": "E-J-Z"
  },
  {
    "objectid": "155",
    "url": "http://web.mta.info/nyct/service/",
    "name": "Parsons Blvd & Archer Ave at NE corner",
    "the_geom": {
      "type": "Point",
      "coordinates": [-73.8017540004326, 40.70188600094776]
    },
    "line": "E-J-Z"
  },
  {
    "objectid": "156",
    "url": "http://web.mta.info/nyct/service/",
    "name": "Parsons Blvd & Archer Ave at NE corner",
    "the_geom": {
      "type": "Point",
      "coordinates": [-73.79978600041868, 40.702674000565295]
    },
    "line": "E-J-Z"
  },
  {
    "objectid": "157",
    "url": "http://web.mta.info/nyct/service/",
    "name": "Parsons Blvd & Archer Ave at SW corner",
    "the_geom": {
      "type": "Point",
      "coordinates": [-73.80001000044307, 40.702324000832135]
    },
    "line": "E-J-Z"
  },
  {
    "objectid": "158",
    "url": "http://web.mta.info/nyct/service/",
    "name": "Sutphin Blvd & Archer Ave at SW corner",
    "the_geom": {
      "type": "Point",
      "coordinates": [-73.80797600010499, 40.700401000758944]
    },
    "line": "E-J-Z"
  },
  {
    "objectid": "159",
    "url": "http://web.mta.info/nyct/service/",
    "name": "Sutphin Blvd & Archer Ave at NW corner",
    "the_geom": {
      "type": "Point",
      "coordinates": [-73.80792299994022, 40.70081000060715]
    },
    "line": "E-J-Z"
  },
  {
    "objectid": "160",
    "url": "http://web.mta.info/nyct/service/",
    "name": "Sutphin Blvd & Archer Ave at SE corner",
    "the_geom": {
      "type": "Point",
      "coordinates": [-73.80735299967046, 40.70055400074703]
    },
    "line": "E-J-Z"
  },
  {
    "objectid": "161",
    "url": "http://web.mta.info/nyct/service/",
    "name": "Sutphin Blvd & Archer Ave at NE corner",
    "the_geom": {
      "type": "Point",
      "coordinates": [-73.80767300014476, 40.70087200047265]
    },
    "line": "E-J-Z"
  },
  {
    "objectid": "162",
    "url": "http://web.mta.info/nyct/service/",
    "name": "Van Wyck Expwy & 89th Ave at SW corner",
    "the_geom": {
      "type": "Point",
      "coordinates": [-73.81637200045567, 40.7012630005995]
    },
    "line": "E"
  },
  {
    "objectid": "163",
    "url": "http://web.mta.info/nyct/service/",
    "name": "Van Wyck Expwy & Jamaica Ave at NW corner",
    "the_geom": {
      "type": "Point",
      "coordinates": [-73.81726999980881, 40.702731001146795]
    },
    "line": "E"
  },
  {
    "objectid": "164",
    "url": "http://web.mta.info/nyct/service/",
    "name": "Van Wyck Expwy & 89th Ave at SW corner",
    "the_geom": {
      "type": "Point",
      "coordinates": [-73.81657699964936, 40.70124100102852]
    },
    "line": "E"
  },
  {
    "objectid": "165",
    "url": "http://web.mta.info/nyct/service/",
    "name": "Jackson Ave & 45th Rd at NW corner",
    "the_geom": {
      "type": "Point",
      "coordinates": [-73.94511500032408, 40.74621400113022]
    },
    "line": "G"
  },
  {
    "objectid": "166",
    "url": "http://web.mta.info/nyct/service/",
    "name": "Jackson Ave & 47th Ave at SW corner",
    "the_geom": {
      "type": "Point",
      "coordinates": [-73.94911699949725, 40.74462500079915]
    },
    "line": "G"
  },
  {
    "objectid": "167",
    "url": "http://web.mta.info/nyct/service/",
    "name": "Jackson Ave & 47th Ave at NW corner",
    "the_geom": {
      "type": "Point",
      "coordinates": [-73.94865800040836, 40.74477100068718]
    },
    "line": "G"
  },
  {
    "objectid": "168",
    "url": "http://web.mta.info/nyct/service/",
    "name": "Jackson Ave & 47th Ave at SE corner",
    "the_geom": {
      "type": "Point",
      "coordinates": [-73.94842500006718, 40.74455200049062]
    },
    "line": "G"
  },
  {
    "objectid": "169",
    "url": "http://web.mta.info/nyct/service/",
    "name": "Manhattan Ave & Greenpoint Ave at SW corner",
    "the_geom": {
      "type": "Point",
      "coordinates": [-73.95437699986623, 40.73007000134703]
    },
    "line": "G"
  },
  {
    "objectid": "170",
    "url": "http://web.mta.info/nyct/service/",
    "name": "Manhattan Ave & Greenpoint Ave at SE corner",
    "the_geom": {
      "type": "Point",
      "coordinates": [-73.95404899990837, 40.7301220004672]
    },
    "line": "G"
  },
  {
    "objectid": "171",
    "url": "http://web.mta.info/nyct/service/",
    "name": "Manhattan Ave & Greenpoint Ave at NW corner",
    "the_geom": {
      "type": "Point",
      "coordinates": [-73.95448800017715, 40.730278000623315]
    },
    "line": "G"
  },
  {
    "objectid": "172",
    "url": "http://web.mta.info/nyct/service/",
    "name": "Manhattan Ave & Nassau Ave at SW corner",
    "the_geom": {
      "type": "Point",
      "coordinates": [-73.95092899956587, 40.72365000111555]
    },
    "line": "G"
  },
  {
    "objectid": "173",
    "url": "http://web.mta.info/nyct/service/",
    "name": "Manhattan Ave & Nassau Ave at SE corner",
    "the_geom": {
      "type": "Point",
      "coordinates": [-73.9505660005446, 40.72376500117912]
    },
    "line": "G"
  },
  {
    "objectid": "174",
    "url": "http://web.mta.info/nyct/service/",
    "name": "Manhattan Ave & Nassau Ave at NW corner",
    "the_geom": {
      "type": "Point",
      "coordinates": [-73.95098500005642, 40.72378000089501]
    },
    "line": "G"
  },
  {
    "objectid": "175",
    "url": "http://web.mta.info/nyct/service/",
    "name": "Manhattan Ave & Nassau Ave at NE corner",
    "the_geom": {
      "type": "Point",
      "coordinates": [-73.95066500048242, 40.723894001089846]
    },
    "line": "G"
  },
  {
    "objectid": "176",
    "url": "http://web.mta.info/nyct/service/",
    "name": "Union Ave & Metropolitan Ave at SW corner",
    "the_geom": {
      "type": "Point",
      "coordinates": [-73.95135000052636, 40.71414000090997]
    },
    "line": "G-L"
  },
  {
    "objectid": "177",
    "url": "http://web.mta.info/nyct/service/",
    "name": "Union Ave & Metropolitan Ave at SW corner",
    "the_geom": {
      "type": "Point",
      "coordinates": [-73.95173699967242, 40.71392700124403]
    },
    "line": "G-L"
  },
  {
    "objectid": "178",
    "url": "http://web.mta.info/nyct/service/",
    "name": "Union Ave & Broadway at SE corner",
    "the_geom": {
      "type": "Point",
      "coordinates": [-73.95006200045962, 40.7051140011964]
    },
    "line": "G"
  },
  {
    "objectid": "179",
    "url": "http://web.mta.info/nyct/service/",
    "name": "Union Ave & Heyward St at NW corner",
    "the_geom": {
      "type": "Point",
      "coordinates": [-73.95055400007777, 40.70549000069345]
    },
    "line": "G"
  },
  {
    "objectid": "180",
    "url": "http://web.mta.info/nyct/service/",
    "name": "Union Ave & Broadway at NE corner",
    "the_geom": {
      "type": "Point",
      "coordinates": [-73.9500889999115, 40.70549500046039]
    },
    "line": "G"
  },
  {
    "objectid": "181",
    "url": "http://web.mta.info/nyct/service/",
    "name": "Union Ave & Broadway at SW corner",
    "the_geom": {
      "type": "Point",
      "coordinates": [-73.95031999979358, 40.70520400100888]
    },
    "line": "G"
  },
  {
    "objectid": "182",
    "url": "http://web.mta.info/nyct/service/",
    "name": "Union Ave & Flushing Ave at SW corner",
    "the_geom": {
      "type": "Point",
      "coordinates": [-73.95016400039005, 40.69958200052498]
    },
    "line": "G"
  },
  {
    "objectid": "183",
    "url": "http://web.mta.info/nyct/service/",
    "name": "Marcy Ave & Myrtle Ave at NW corner",
    "the_geom": {
      "type": "Point",
      "coordinates": [-73.94948000029783, 40.69543600112017]
    },
    "line": "G"
  },
  {
    "objectid": "184",
    "url": "http://web.mta.info/nyct/service/",
    "name": "Nostrand Ave & Lafayette Ave at NW corner",
    "the_geom": {
      "type": "Point",
      "coordinates": [-73.95161600010411, 40.68999500055366]
    },
    "line": "G"
  },
  {
    "objectid": "185",
    "url": "http://web.mta.info/nyct/service/",
    "name": "Nostrand Ave & Lafayette Ave at SW corner",
    "the_geom": {
      "type": "Point",
      "coordinates": [-73.95161200023976, 40.68975700129054]
    },
    "line": "G"
  },
  {
    "objectid": "186",
    "url": "http://web.mta.info/nyct/service/",
    "name": "Classon Ave & Lafayette Ave at NW corner",
    "the_geom": {
      "type": "Point",
      "coordinates": [-73.96021500021762, 40.68894200054612]
    },
    "line": "G"
  },
  {
    "objectid": "187",
    "url": "http://web.mta.info/nyct/service/",
    "name": "Classon Ave & Lafayette Ave at SE corner",
    "the_geom": {
      "type": "Point",
      "coordinates": [-73.95987100016234, 40.68878100077371]
    },
    "line": "G"
  },
  {
    "objectid": "188",
    "url": "http://web.mta.info/nyct/service/",
    "name": "Classon Ave & Lafayette Ave at SW corner",
    "the_geom": {
      "type": "Point",
      "coordinates": [-73.96018999989462, 40.68875300114247]
    },
    "line": "G"
  },
  {
    "objectid": "189",
    "url": "http://web.mta.info/nyct/service/",
    "name": "Clinton Ave & Lafayette Ave at NE corner",
    "the_geom": {
      "type": "Point",
      "coordinates": [-73.96757500050515, 40.68811400117377]
    },
    "line": "G"
  },
  {
    "objectid": "190",
    "url": "http://web.mta.info/nyct/service/",
    "name": "Clinton Ave & Lafayette Ave at NE corner",
    "the_geom": {
      "type": "Point",
      "coordinates": [-73.96757500050515, 40.68811400117377]
    },
    "line": "G"
  },
  {
    "objectid": "191",
    "url": "http://web.mta.info/nyct/service/",
    "name": "Clinton Ave & Lafayette Ave at SW corner",
    "the_geom": {
      "type": "Point",
      "coordinates": [-73.96793100031711, 40.68787500108729]
    },
    "line": "G"
  },
  {
    "objectid": "192",
    "url": "http://web.mta.info/nyct/service/",
    "name": "Clinton Ave & Lafayette Ave at SW corner",
    "the_geom": {
      "type": "Point",
      "coordinates": [-73.96793100031711, 40.68787500108729]
    },
    "line": "G"
  },
  {
    "objectid": "193",
    "url": "http://web.mta.info/nyct/service/",
    "name": "Washington Ave & Lafayette Ave at NE corner",
    "the_geom": {
      "type": "Point",
      "coordinates": [-73.96574899975677, 40.68846000057322]
    },
    "line": "G"
  },
  {
    "objectid": "194",
    "url": "http://web.mta.info/nyct/service/",
    "name": "Washington Ave & Lafayette Ave at NE corner",
    "the_geom": {
      "type": "Point",
      "coordinates": [-73.96574899975677, 40.68846000057322]
    },
    "line": "G"
  },
  {
    "objectid": "195",
    "url": "http://web.mta.info/nyct/service/",
    "name": "Washington Ave & Lafayette Ave at SE corner",
    "the_geom": {
      "type": "Point",
      "coordinates": [-73.965578999989, 40.68815700090346]
    },
    "line": "G"
  },
  {
    "objectid": "196",
    "url": "http://web.mta.info/nyct/service/",
    "name": "Washington Ave & Lafayette Ave at SE corner",
    "the_geom": {
      "type": "Point",
      "coordinates": [-73.965578999989, 40.68815700090346]
    },
    "line": "G"
  },
  {
    "objectid": "197",
    "url": "http://web.mta.info/nyct/service/",
    "name": "Fort Greene Pl & Lafayette Ave at NE corner",
    "the_geom": {
      "type": "Point",
      "coordinates": [-73.97628999951374, 40.68715900067602]
    },
    "line": "G"
  },
  {
    "objectid": "198",
    "url": "http://web.mta.info/nyct/service/",
    "name": "Fort Greene Pl & Lafayette Ave at NW corner",
    "the_geom": {
      "type": "Point",
      "coordinates": [-73.97686500042563, 40.68716000111625]
    },
    "line": "G"
  },
  {
    "objectid": "199",
    "url": "http://web.mta.info/nyct/service/",
    "name": "Broadway & 242nd St at NW corner",
    "the_geom": {
      "type": "Point",
      "coordinates": [-73.89843200045328, 40.889783000890915]
    },
    "line": "1"
  },
  {
    "objectid": "200",
    "url": "http://web.mta.info/nyct/service/",
    "name": "Broadway & 242nd St at NE corner",
    "the_geom": {
      "type": "Point",
      "coordinates": [-73.89792499951669, 40.889683001346754]
    },
    "line": "1"
  },
  {
    "objectid": "201",
    "url": "http://web.mta.info/nyct/service/",
    "name": "Broadway & 242nd St at NW corner",
    "the_geom": {
      "type": "Point",
      "coordinates": [-73.89825699978446, 40.89013600109805]
    },
    "line": "1"
  },
  {
    "objectid": "202",
    "url": "http://web.mta.info/nyct/service/",
    "name": "Broadway & 242nd St at NE corner",
    "the_geom": {
      "type": "Point",
      "coordinates": [-73.89779799986037, 40.88994600102675]
    },
    "line": "1"
  },
  {
    "objectid": "203",
    "url": "http://web.mta.info/nyct/service/",
    "name": "Broadway & 238th St at SW corner",
    "the_geom": {
      "type": "Point",
      "coordinates": [-73.90092299968606, 40.88481300063471]
    },
    "line": "1"
  },
  {
    "objectid": "204",
    "url": "http://web.mta.info/nyct/service/",
    "name": "Broadway & 231st St at SW corner",
    "the_geom": {
      "type": "Point",
      "coordinates": [-73.90502400016787, 40.878775000952515]
    },
    "line": "1"
  },
  {
    "objectid": "205",
    "url": "http://web.mta.info/nyct/service/",
    "name": "Broadway & 231st St at NW corner",
    "the_geom": {
      "type": "Point",
      "coordinates": [-73.9047509996186, 40.87916800087231]
    },
    "line": "1"
  },
  {
    "objectid": "206",
    "url": "http://web.mta.info/nyct/service/",
    "name": "Broadway & 225th St at NW corner",
    "the_geom": {
      "type": "Point",
      "coordinates": [-73.9105289996505, 40.874437000660414]
    },
    "line": "1"
  },
  {
    "objectid": "207",
    "url": "http://web.mta.info/nyct/service/",
    "name": "10th Ave & 215th St at SW corner",
    "the_geom": {
      "type": "Point",
      "coordinates": [-73.91545500000119, 40.86941200089763]
    },
    "line": "1"
  },
  {
    "objectid": "208",
    "url": "http://web.mta.info/nyct/service/",
    "name": "10th Ave & 215th St at NW corner",
    "the_geom": {
      "type": "Point",
      "coordinates": [-73.91516999982605, 40.86979300113744]
    },
    "line": "1"
  },
  {
    "objectid": "209",
    "url": "http://web.mta.info/nyct/service/",
    "name": "10th Ave & 207th St at NW corner",
    "the_geom": {
      "type": "Point",
      "coordinates": [-73.91886400044963, 40.86474500120516]
    },
    "line": "1"
  },
  {
    "objectid": "210",
    "url": "http://web.mta.info/nyct/service/",
    "name": "10th Ave & 207th St at SW corner",
    "the_geom": {
      "type": "Point",
      "coordinates": [-73.91922200035864, 40.86428300127663]
    },
    "line": "1"
  },
  {
    "objectid": "211",
    "url": "http://web.mta.info/nyct/service/",
    "name": "Hillside Ave & Nagle Ave at SW corner",
    "the_geom": {
      "type": "Point",
      "coordinates": [-73.92511000049237, 40.86118300120977]
    },
    "line": "1"
  },
  {
    "objectid": "212",
    "url": "http://web.mta.info/nyct/service/",
    "name": "Hillside Ave & Nagle Ave at SW corner",
    "the_geom": {
      "type": "Point",
      "coordinates": [-73.92507800016078, 40.861187001123554]
    },
    "line": "1"
  },
  {
    "objectid": "213",
    "url": "http://web.mta.info/nyct/service/",
    "name": "E Tenafly Av & S Railroad St at NW Corner",
    "the_geom": {
      "type": "Point",
      "coordinates": [-74.17870202747334, 40.54023838312863]
    },
    "line": "SIR"
  },
  {
    "objectid": "214",
    "url": "http://web.mta.info/nyct/service/",
    "name": "Bay St & Hannah St at NE Corner",
    "the_geom": {
      "type": "Point",
      "coordinates": [-74.07472117936834, 40.63631005470929]
    },
    "line": "SIR"
  },
  {
    "objectid": "215",
    "url": "http://web.mta.info/nyct/service/",
    "name": "Annadale Rd & N Railroad St at SW Corner",
    "the_geom": {
      "type": "Point",
      "coordinates": [-74.17746136164392, 40.54064030968037]
    },
    "line": "SIR"
  },
  {
    "objectid": "216",
    "url": "http://web.mta.info/nyct/service/",
    "name": "Main St & Ellis St at SW Corner",
    "the_geom": {
      "type": "Point",
      "coordinates": [-74.25114200530203, 40.513394999768536]
    },
    "line": "SIR"
  },
  {
    "objectid": "217",
    "url": "http://web.mta.info/nyct/service/",
    "name": "Seguine Av & Waterbury Av at SE Corner",
    "the_geom": {
      "type": "Point",
      "coordinates": [-74.20081488169684, 40.52535277285607]
    },
    "line": "SIR"
  },
  {
    "objectid": "218",
    "url": "http://web.mta.info/nyct/service/",
    "name": "Nelson Av & Brower St at NE Corner",
    "the_geom": {
      "type": "Point",
      "coordinates": [-74.151490395228, 40.551044828771424]
    },
    "line": "SIR"
  },
  {
    "objectid": "219",
    "url": "http://web.mta.info/nyct/service/",
    "name": "Nassau Pl & Averill Pl at SW Corner",
    "the_geom": {
      "type": "Point",
      "coordinates": [-74.23900680150932, 40.51783236016187]
    },
    "line": "SIR"
  },
  {
    "objectid": "220",
    "url": "http://web.mta.info/nyct/service/",
    "name": "Oregon Rd & Old Town Rd at NW Corner",
    "the_geom": {
      "type": "Point",
      "coordinates": [-74.08756358705132, 40.59608371277666]
    },
    "line": "SIR"
  },
  {
    "objectid": "221",
    "url": "http://web.mta.info/nyct/service/",
    "name": "Garretson Av & Hancock St at NW Corner",
    "the_geom": {
      "type": "Point",
      "coordinates": [-74.09566269024818, 40.58898083133198]
    },
    "line": "SIR"
  },
  {
    "objectid": "222",
    "url": "http://web.mta.info/nyct/service/",
    "name": "Clove Rd & Hillcrest Te at SW Corner",
    "the_geom": {
      "type": "Point",
      "coordinates": [-74.08361004730492, 40.6036463903815]
    },
    "line": "SIR"
  },
  {
    "objectid": "223",
    "url": "http://web.mta.info/nyct/service/",
    "name": "Lincoln Av & N Railroad Av at SW Corner",
    "the_geom": {
      "type": "Point",
      "coordinates": [-74.10909547424173, 40.5794406004058]
    },
    "line": "SIR"
  },
  {
    "objectid": "224",
    "url": "http://web.mta.info/nyct/service/",
    "name": "Tracy Av & Arthur Kill Rd at NW Corner",
    "the_geom": {
      "type": "Point",
      "coordinates": [-74.24543268887537, 40.51538834259189]
    },
    "line": "SIR"
  },
  {
    "objectid": "225",
    "url": "http://web.mta.info/nyct/service/",
    "name": "Justin Av & S Railroad Av at NW Corner",
    "the_geom": {
      "type": "Point",
      "coordinates": [-74.1362980235717, 40.556853330491705]
    },
    "line": "SIR"
  },
  {
    "objectid": "226",
    "url": "http://web.mta.info/nyct/service/",
    "name": "Amboy Rd & Station Av at SW Corner",
    "the_geom": {
      "type": "Point",
      "coordinates": [-74.21661689499, 40.522795218815794]
    },
    "line": "SIR"
  },
  {
    "objectid": "227",
    "url": "http://web.mta.info/nyct/service/",
    "name": "Saint Nicholas Ave & 191st St at SW corner",
    "the_geom": {
      "type": "Point",
      "coordinates": [-73.92953599966226, 40.85537400078619]
    },
    "line": "1"
  },
  {
    "objectid": "228",
    "url": "http://web.mta.info/nyct/service/",
    "name": "Broadway & 190th St at NE corner",
    "the_geom": {
      "type": "Point",
      "coordinates": [-73.93260500034644, 40.8564130010661]
    },
    "line": "1"
  },
  {
    "objectid": "229",
    "url": "http://web.mta.info/nyct/service/",
    "name": "Saint Nicholas Ave & 181st St at NE corner",
    "the_geom": {
      "type": "Point",
      "coordinates": [-73.93342800012336, 40.84943500131897]
    },
    "line": "1"
  },
  {
    "objectid": "230",
    "url": "http://web.mta.info/nyct/service/",
    "name": "Saint Nicholas Ave & 181st St at SE corner",
    "the_geom": {
      "type": "Point",
      "coordinates": [-73.9337469994527, 40.84909800112342]
    },
    "line": "1"
  },
  {
    "objectid": "231",
    "url": "http://web.mta.info/nyct/service/",
    "name": "Broadway & 157th St at NW corner",
    "the_geom": {
      "type": "Point",
      "coordinates": [-73.94518300038898, 40.83426800130478]
    },
    "line": "1"
  },
  {
    "objectid": "232",
    "url": "http://web.mta.info/nyct/service/",
    "name": "Broadway & 157th St at NW corner",
    "the_geom": {
      "type": "Point",
      "coordinates": [-73.94507299964854, 40.834221000799]
    },
    "line": "1"
  },
  {
    "objectid": "233",
    "url": "http://web.mta.info/nyct/service/",
    "name": "Broadway & 145th St at NE corner",
    "the_geom": {
      "type": "Point",
      "coordinates": [-73.95051999955042, 40.82665700086404]
    },
    "line": "1"
  },
  {
    "objectid": "234",
    "url": "http://web.mta.info/nyct/service/",
    "name": "Broadway & 137th St at NW corner",
    "the_geom": {
      "type": "Point",
      "coordinates": [-73.9542229998489, 40.82158400072177]
    },
    "line": "1"
  },
  {
    "objectid": "235",
    "url": "http://web.mta.info/nyct/service/",
    "name": "Broadway & 137th St at SW corner",
    "the_geom": {
      "type": "Point",
      "coordinates": [-73.95440800002518, 40.82134800084509]
    },
    "line": "1"
  },
  {
    "objectid": "236",
    "url": "http://web.mta.info/nyct/service/",
    "name": "Broadway & Tiemann Pl at NE corner",
    "the_geom": {
      "type": "Point",
      "coordinates": [-73.95843900056369, 40.815143000777624]
    },
    "line": "1"
  },
  {
    "objectid": "237",
    "url": "http://web.mta.info/nyct/service/",
    "name": "Broadway & Tiemann Pl at NW corner",
    "the_geom": {
      "type": "Point",
      "coordinates": [-73.95855400038508, 40.81568800046402]
    },
    "line": "1"
  },
  {
    "objectid": "238",
    "url": "http://web.mta.info/nyct/service/",
    "name": "Broadway & 125th St at SW corner",
    "the_geom": {
      "type": "Point",
      "coordinates": [-73.95882600040818, 40.815307001276445]
    },
    "line": "1"
  },
  {
    "objectid": "239",
    "url": "http://web.mta.info/nyct/service/",
    "name": "Broadway & 125th St at SW corner",
    "the_geom": {
      "type": "Point",
      "coordinates": [-73.958366000247, 40.81523000117834]
    },
    "line": "1"
  },
  {
    "objectid": "240",
    "url": "http://web.mta.info/nyct/service/",
    "name": "Broadway & 116th St at NW corner",
    "the_geom": {
      "type": "Point",
      "coordinates": [-73.96395500043013, 40.80825100090538]
    },
    "line": "1"
  },
  {
    "objectid": "241",
    "url": "http://web.mta.info/nyct/service/",
    "name": "Broadway & 116th St at NE corner",
    "the_geom": {
      "type": "Point",
      "coordinates": [-73.96360299941038, 40.808099000602446]
    },
    "line": "1"
  },
  {
    "objectid": "242",
    "url": "http://web.mta.info/nyct/service/",
    "name": "Broadway & 116th St at NW corner",
    "the_geom": {
      "type": "Point",
      "coordinates": [-73.9638450000096, 40.808400000687584]
    },
    "line": "1"
  },
  {
    "objectid": "243",
    "url": "http://web.mta.info/nyct/service/",
    "name": "Broadway & 116th St at NE corner",
    "the_geom": {
      "type": "Point",
      "coordinates": [-73.96349499943106, 40.80824500112703]
    },
    "line": "1"
  },
  {
    "objectid": "244",
    "url": "http://web.mta.info/nyct/service/",
    "name": "Broadway & Cathedral Pkwy at NW corner",
    "the_geom": {
      "type": "Point",
      "coordinates": [-73.96678600037963, 40.80439000119268]
    },
    "line": "1"
  },